City_ID,City,Cloudiness,Country,Date,Humidity,Lat,Lon,Max Temp,Max Temp K,Wind Speed
0,Hualmay,35,PE,1593224740,85,-11.1,-77.61,62,289.62,3.67
1,Hithadhoo,99,MV,1593224741,71,-0.6,73.08,84,302.24,2.32
2,Pacific Grove,90,US,1593224741,82,36.62,-121.92,61,289.15,4.1
3,Bremerhaven,42,DE,1593224741,82,53.55,8.58,66,292.04,3.1
4,Butaritari,95,KI,1593224741,74,3.07,172.79,83,301.65,4.35
5,Ozinki,0,RU,1593224741,79,51.18,49.68,57,286.87,4.74
6,Barrow,90,US,1593224741,86,71.29,-156.79,39,277.15,2.1
7,Kaitangata,32,NZ,1593224696,59,-46.28,169.85,55,285.93,0.45
8,New Norfolk,100,AU,1593224698,86,-42.78,147.06,49,282.59,0.45
9,Ushuaia,20,AR,1593224605,74,-54.8,-68.3,36,275.15,10.8
10,Vrangel',100,RU,1593224741,97,42.73,133.08,59,287.93,2.31
11,Antofagasta,90,CL,1593224741,82,-23.65,-70.4,57,287.15,5.1
12,Chokurdakh,0,RU,1593224742,33,70.63,147.92,62,289.63,3.95
13,Ponta do Sol,40,PT,1593224742,68,32.67,-17.1,70,294.15,3.6
14,Alice Springs,0,AU,1593224493,33,-23.7,133.88,59,288.15,5.1
15,Ilulissat,13,GL,1593224742,93,69.22,-51.1,37,276.15,1.5
16,Vaini,20,TO,1593224742,78,-21.2,-175.2,79,299.15,4.1
17,Lorengau,100,PG,1593224705,70,-2.02,147.27,85,302.86,4.87
18,Jamestown,1,US,1593224742,68,42.1,-79.24,66,292.04,1.5
19,Bredasdorp,5,ZA,1593224742,58,-34.53,20.04,57,287.15,5.7
20,Comodoro Rivadavia,0,AR,1593224742,74,-45.87,-67.5,30,272.15,4.6
21,Mataura,56,NZ,1593224742,64,-46.19,168.86,49,282.73,1.11
22,Rikitea,100,PF,1593224743,80,-23.12,-134.97,74,296.4,6.46
23,Cape Town,75,ZA,1593224464,82,-33.93,18.42,60,288.71,9.8
24,Homer,1,US,1593224743,71,59.64,-151.55,56,286.48,8.2
25,Boyolangu,62,ID,1593224743,78,-8.12,111.89,79,299.16,3.07
26,Tautira,75,PF,1593224743,74,-17.73,-149.15,79,299.15,8.2
27,Øksfjord,75,NO,1593224743,71,70.24,22.35,50,283.15,8.2
28,Khatanga,49,RU,1593224743,55,71.97,102.5,63,290.58,3.71
29,Narsaq,72,GL,1593224743,66,60.92,-46.05,50,283.15,2.1
30,Ahipara,14,NZ,1593224744,88,-35.17,173.17,61,289.47,6.0
31,Sørland,20,NO,1593224744,81,67.67,12.69,48,282.15,3.6
32,Airai,59,TL,1593224744,62,-8.93,125.41,69,293.92,1.92
33,Yulara,0,AU,1593224710,28,-25.24,130.99,59,288.15,3.6
34,Port Alfred,0,ZA,1593224744,71,-33.59,26.89,54,285.37,3.13
35,Pueblo,1,US,1593224744,32,38.25,-104.61,81,300.15,7.7
36,Kashgar,20,CN,1593224660,23,39.45,75.98,75,297.15,3.0
37,Hofn,100,IS,1593224745,85,64.25,-15.21,50,283.11,3.37
38,Sikonge,34,TZ,1593224745,72,-5.63,32.77,64,291.15,2.6
39,Moba,11,CN,1593224745,73,33.23,105.02,64,290.9,2.32
40,Bluff,94,NZ,1593224745,63,-46.6,168.33,48,281.78,1.39
41,Atuona,4,PF,1593224694,74,-9.8,-139.03,80,299.87,4.83
42,Richards Bay,0,ZA,1593224745,62,-28.78,32.04,63,290.17,5.72
43,Dikson,97,RU,1593224745,90,73.51,80.55,35,274.99,11.88
44,Busselton,59,AU,1593224745,81,-33.65,115.33,63,290.37,6.8
45,Nuuk,23,GL,1593224745,93,64.18,-51.72,37,276.15,3.6
46,Bridlington,36,GB,1593224745,93,54.08,-0.19,63,290.37,1.5
47,Santa Cruz Cabrália,75,BR,1593224746,88,-16.28,-39.02,73,296.15,1.0
48,Naraini,79,IN,1593224746,61,25.18,80.48,87,303.9,6.1
49,Menongue,0,AO,1593224746,59,-14.66,17.69,45,280.15,0.9
50,Ankazobe,75,MG,1593224746,87,-18.32,47.12,55,286.15,2.1
51,Bereda,98,ES,1593224746,92,43.27,-7.54,63,290.37,5.36
52,Faanui,20,PF,1593224710,78,-16.48,-151.75,78,298.65,6.63
53,Upernavik,97,GL,1593224746,89,72.79,-56.15,37,275.98,1.2
54,Haines Junction,95,CA,1593224746,29,60.75,-137.51,65,291.5,0.52
55,Saint Paul Harbor,40,US,1593224746,38,57.79,-152.41,61,289.15,7.7
56,Abhā,66,SA,1593224746,28,18.22,42.51,73,296.15,2.6
57,Albany,0,US,1593224747,88,42.6,-73.97,71,294.82,1.75
58,Hilo,75,US,1593224683,65,19.73,-155.09,82,301.15,5.1
59,Kongolo,8,CD,1593224747,74,-5.38,27.0,69,293.65,0.57
60,Dodola,72,ET,1593224747,84,6.98,39.18,53,284.63,1.05
61,Puerto Ayora,76,EC,1593224478,93,-0.74,-90.35,70,294.26,0.45
62,Tasiilaq,100,GL,1593224695,86,65.61,-37.64,41,278.15,1.5
63,Mar del Plata,75,AR,1593224747,86,-38.0,-57.56,44,279.82,3.6
64,Lüderitz,0,NA,1593224713,71,-26.65,15.16,54,285.15,5.7
65,Ulladulla,90,AU,1593224747,50,-35.35,150.47,56,286.48,4.6
66,George Town,20,MY,1593224737,83,5.41,100.34,84,302.15,1.5
67,Naifaru,100,MV,1593224748,74,5.44,73.37,82,300.93,5.04
68,Sharan,100,RU,1593224748,87,54.82,54.0,48,282.29,2.27
69,Poum,0,NC,1593224748,65,-20.23,164.02,71,294.67,5.34
70,Mahébourg,75,MU,1593224748,94,-20.41,57.7,72,295.15,5.7
71,Willowmore,0,ZA,1593224748,76,-33.29,23.49,40,277.73,4.21
72,Tuktoyaktuk,90,CA,1593224748,86,69.45,-133.04,37,276.15,6.7
73,Kourou,20,GF,1593224748,100,5.16,-52.65,77,298.15,2.92
74,San Patricio,75,MX,1593224748,88,19.22,-104.7,79,299.15,7.7
75,Lata,90,PT,1593224748,88,40.16,-8.33,66,292.15,2.1
76,Lebu,31,CL,1593224748,92,-37.62,-73.65,50,283.19,5.62
77,Port-Gentil,10,GA,1593224748,82,-0.72,8.78,74,296.21,4.31
78,Namatanai,84,PG,1593224749,74,-3.67,152.43,83,301.35,3.17
79,Santa Fe,79,AR,1593224749,66,-31.63,-60.7,50,283.15,0.45
80,Leningradskiy,100,RU,1593224749,96,69.38,178.42,32,273.06,9.11
81,Fort Nelson,75,CA,1593224749,52,58.81,-122.7,66,292.15,2.6
82,East London,0,ZA,1593224749,67,-33.02,27.91,59,287.88,2.17
83,Naze,75,JP,1593224716,83,28.37,129.48,84,302.15,6.2
84,Porto Seguro,75,BR,1593224749,88,-16.45,-39.06,73,296.15,1.0
85,Yellowknife,40,CA,1593224699,48,62.46,-114.35,70,294.26,2.1
86,Longyearbyen,75,SJ,1593224496,80,78.22,15.64,41,278.15,8.2
87,Lahān,60,NP,1593224750,74,26.73,86.5,84,302.02,3.35
88,Sāveh,0,IR,1593224750,49,35.02,50.36,69,293.71,3.15
89,Norman Wells,75,CA,1593224750,35,65.28,-126.83,72,295.15,6.2
90,Hermanus,43,ZA,1593224750,85,-34.42,19.23,54,285.37,7.15
91,Sobolevo,0,RU,1593224750,80,54.43,31.9,61,289.09,1.2
92,Saldanha,39,ZA,1593224750,76,-33.01,17.94,57,287.15,5.1
93,Faya,41,SA,1593224750,28,18.39,42.45,73,296.15,2.6
94,Nikolskoye,0,RU,1593224751,63,59.7,30.79,66,292.15,4.0
95,Laguna,1,US,1593224711,40,38.42,-121.42,88,304.26,5.7
96,Punta Arenas,0,CL,1593224645,86,-53.15,-70.92,30,272.15,5.1
97,Massaguet,100,TD,1593224751,62,12.48,15.44,84,302.15,3.1
98,Mágocs,12,HU,1593224751,92,46.35,18.23,66,292.04,2.12
99,Prince Rupert,90,CA,1593224463,100,54.32,-130.32,52,284.15,1.5
100,Lidköping,60,SE,1593224751,100,58.51,13.16,62,289.82,2.1
101,Castro,100,BR,1593224751,95,-24.79,-50.01,54,285.18,5.78
102,Cayhagan,89,PH,1593224751,75,9.67,122.43,82,301.03,0.73
103,Arês,75,BR,1593224751,100,-6.19,-35.16,73,296.15,1.5
104,Margate,26,GB,1593224752,85,51.38,1.39,61,289.26,1.79
105,Skibotn,75,NO,1593224752,81,69.39,20.27,46,281.15,6.7
106,Cherskiy,0,RU,1593224752,61,68.75,161.3,42,278.66,7.6
107,Arraial do Cabo,73,BR,1593224692,88,-22.97,-42.03,72,295.14,0.85
108,Calabozo,74,VE,1593224752,92,8.92,-67.43,75,297.07,2.96
109,Todos Santos,90,MX,1593224752,84,23.45,-110.22,69,293.71,0.45
110,Sitka,90,US,1593224544,100,57.05,-135.33,52,284.15,3.6
111,Bandarbeyla,100,SO,1593224752,64,9.49,50.81,81,300.56,13.54
112,Manggar,85,ID,1593224752,73,-2.88,108.27,84,301.86,4.97
113,Contamana,68,PE,1593224753,87,-7.33,-75.02,75,297.02,1.11
114,Kapaa,1,US,1593224753,66,22.08,-159.32,84,302.15,5.1
115,Lodja,0,CD,1593224753,83,-3.48,23.43,70,294.34,0.26
116,Solnechnyy,100,RU,1593224753,51,50.72,136.63,69,293.54,3.39
117,Nome,90,US,1593224718,81,64.5,-165.41,46,281.15,9.8
118,Skovorodino,99,RU,1593224753,40,53.98,123.92,73,295.91,1.57
119,Kruisfontein,0,ZA,1593224753,72,-34.0,24.73,48,281.8,3.59
120,Paita,0,PE,1593224753,80,-5.09,-81.11,65,291.73,5.7
121,Geraldton,90,AU,1593224753,72,-28.77,114.6,68,293.15,5.1
122,São Miguel do Araguaia,33,BR,1593224753,47,-13.28,-50.16,74,296.29,1.52
123,Camaná,41,PE,1593224754,80,-16.62,-72.71,61,289.45,3.41
124,Shingū,75,JP,1593224719,78,33.73,135.98,81,300.15,2.6
125,Batasan,100,PH,1593224754,65,12.77,120.78,85,302.57,1.3
126,Ballina,75,AU,1593224754,93,-28.87,153.57,61,289.15,4.6
127,Zapolyarnyy,75,RU,1593224754,87,69.42,30.81,45,280.15,12.3
128,Port Augusta,0,AU,1593224754,39,-32.5,137.77,63,290.15,2.6
129,Dunedin,30,NZ,1593224712,77,-45.87,170.5,56,286.48,0.45
130,Carnarvon,29,AU,1593224754,53,-24.87,113.63,73,296.15,3.6
131,Arroio Grande,100,BR,1593224754,95,-32.24,-53.09,35,274.82,2.05
132,Sambava,10,MG,1593224754,84,-14.27,50.17,71,295.08,5.05
133,Lagoa,32,PT,1593224720,96,39.05,-27.98,66,292.04,5.6
134,Cockburn Town,41,TC,1593224662,80,21.46,-71.14,83,301.26,8.86
135,Fukuechō,75,JP,1593224755,94,32.69,128.84,81,300.15,2.6
136,Tiksi,70,RU,1593224755,46,71.69,128.87,65,291.43,3.73
137,Lloydminster,75,CA,1593224614,68,53.28,-110.0,64,291.15,2.6
138,Portland,75,US,1593224570,44,45.52,-122.68,82,300.93,4.6
139,Nouadhibou,0,MR,1593224568,73,20.93,-17.03,72,295.15,9.3
140,Cibitoke Province,72,BI,1593224755,75,-2.88,29.25,63,290.43,1.48
141,Los Llanos de Aridane,90,ES,1593224755,60,28.66,-17.92,72,295.15,7.2
142,Guerrero Negro,0,MX,1593224755,78,27.98,-114.06,67,292.78,7.44
143,Alanya,0,TR,1593224756,49,36.54,32.0,81,300.15,2.88
144,Onega,100,RU,1593224756,67,63.91,38.14,55,285.95,4.61
145,Dondo,0,MZ,1593224756,93,-19.61,34.74,64,291.15,3.1
146,Kawalu,4,ID,1593224756,65,-7.38,108.21,80,299.94,1.02
147,Puga,90,MX,1593224756,100,21.58,-104.82,68,293.15,0.73
148,Ternate,96,ID,1593224756,77,0.8,127.4,82,300.7,0.79
149,Hasaki,75,JP,1593224756,83,35.73,140.83,84,302.04,1.5
150,Qaanaaq,10,GL,1593224756,79,77.48,-69.36,37,276.05,1.17
151,Rio Verde de Mato Grosso,62,BR,1593224756,94,-18.92,-54.84,68,293.33,3.18
152,Jalu,0,LY,1593224717,55,29.03,21.55,73,296.13,3.42
153,Nanortalik,98,GL,1593224757,91,60.14,-45.24,40,277.67,1.46
154,Shenzhen,20,CN,1593224757,70,22.55,114.07,91,305.93,6.0
155,Cidreira,100,BR,1593224692,61,-30.18,-50.21,51,283.51,2.19
156,Avarua,4,CK,1593224753,78,-21.21,-159.78,72,295.15,3.6
157,Saint-Philippe,34,RE,1593224693,72,-21.36,55.77,66,292.15,2.6
158,Millinocket,75,US,1593224483,77,45.66,-68.71,64,291.15,1.44
159,Sovetskaya,0,RU,1593224757,5,44.78,41.17,55,285.93,3.58
160,Matamoros,75,MX,1593224717,35,25.53,-103.25,88,304.15,3.6
161,Chengde,0,CN,1593224757,50,40.97,117.94,80,299.95,0.95
162,Henties Bay,0,NA,1593224696,90,-22.12,14.28,51,283.71,3.16
163,Hobyo,78,SO,1593224758,76,5.35,48.53,79,299.25,9.32
164,Kushmurun,1,KZ,1593224758,74,52.45,64.63,51,283.6,6.31
165,Palapag,96,PH,1593224758,78,12.55,125.11,84,302.27,1.82
166,Provideniya,100,RU,1593224758,77,64.38,-173.3,41,277.9,13.17
167,Hobart,75,AU,1593224518,71,-42.88,147.33,50,283.15,4.6
168,Moose Factory,1,CA,1593224758,87,51.26,-80.61,59,288.15,3.1
169,Gwadar,36,PK,1593224716,80,25.12,62.33,85,302.63,2.77
170,Teya,34,RU,1593224758,34,60.38,92.63,80,299.67,1.03
171,Talas,41,TR,1593224759,87,38.69,35.55,55,286.15,0.5
172,Inhambane,0,MZ,1593224594,85,-23.86,35.38,66,291.92,4.27
173,Bethel,1,US,1593224576,68,41.37,-73.41,69,293.71,2.1
174,Kavieng,100,PG,1593224759,75,-2.57,150.8,83,301.55,5.18
175,Thompson,75,CA,1593224759,88,55.74,-97.86,64,291.15,2.6
176,Meadow Lake,75,US,1593224759,8,34.8,-106.54,90,305.15,1.36
177,Gardez,0,AF,1593224760,25,33.6,69.23,65,291.71,3.07
178,Monterey,90,US,1593224760,77,36.25,-121.25,85,302.59,6.2
179,Ust-Kuyga,38,RU,1593224760,29,70.02,135.6,80,299.77,0.99
180,Buala,100,SB,1593224760,77,-8.14,159.59,83,301.7,4.18
181,Seoul,83,KR,1593224553,65,37.57,126.98,79,299.15,2.1
182,Clyde River,1,CA,1593224760,93,70.47,-68.59,37,276.15,1.5
183,Bambous Virieux,75,MU,1593224760,94,-20.34,57.76,72,295.15,5.7
184,Fortuna,20,US,1593224703,72,40.6,-124.16,64,290.93,6.2
185,Kenai,20,US,1593224547,67,60.55,-151.26,57,287.15,8.2
186,Vao,24,NC,1593224724,63,-22.67,167.48,70,294.48,4.23
187,Khandyga,49,RU,1593224761,37,62.67,135.6,84,302.17,0.76
188,Gijang,100,KR,1593224686,54,35.24,129.21,84,302.15,1.0
189,Skjervøy,100,NO,1593224761,88,70.03,20.97,46,281.11,5.86
190,Belluno,57,IT,1593224761,100,46.15,12.22,69,293.71,4.47
191,Cabo San Lucas,75,MX,1593224706,65,22.89,-109.91,85,302.59,1.5
192,Baykit,0,RU,1593224761,37,61.67,96.37,78,298.79,1.96
193,Souillac,75,MU,1593224716,94,-20.52,57.52,72,295.15,5.7
194,Muros,99,ES,1593224762,91,42.78,-9.06,63,290.37,3.13
195,Warri,100,NG,1593224762,94,5.52,5.75,75,296.89,2.34
196,Harper,100,LR,1593224762,85,4.38,-7.72,75,297.14,4.24
197,Praia,20,CV,1593224762,73,14.92,-23.51,75,297.15,6.2
198,Valle de Allende,100,MX,1593224762,21,26.93,-105.4,83,301.71,4.14
199,Ancud,90,CL,1593224763,75,-41.87,-73.82,46,280.93,1.0
200,Salalah,75,OM,1593224763,94,17.02,54.09,82,301.15,2.6
201,Barcelona,20,ES,1593223968,73,41.39,2.16,76,297.59,0.5
202,Laem Sing,40,TH,1593224763,74,12.48,102.07,86,303.15,2.1
203,Vestmannaeyjar,98,IS,1593224739,84,63.44,-20.27,50,283.1,4.05
204,Qasigiannguit,85,GL,1593224763,93,68.82,-51.19,37,276.15,1.5
205,Russell,75,US,1593224763,78,32.35,-85.2,81,300.15,1.46
206,Joanópolis,75,BR,1593224763,88,-22.93,-46.28,64,291.15,3.6
207,Qaqortoq,98,GL,1593224695,66,60.72,-46.03,50,283.15,2.1
208,Ortigueira,100,BR,1593224764,100,-24.21,-50.95,59,288.35,1.99
209,Oytal,100,KZ,1593224764,72,42.91,73.27,63,290.61,1.01
210,Oruzgan,0,AF,1593224764,23,32.83,66.0,70,294.05,3.58
211,Saint-Augustin,100,CA,1593224764,66,51.23,-58.65,62,289.86,3.88
212,Hirara,75,JP,1593224764,79,24.8,125.28,86,303.15,6.7
213,Mehamn,100,NO,1593224719,90,71.04,27.85,44,279.63,8.71
214,Kollam,75,IN,1593224764,88,8.88,76.6,79,299.15,3.6
215,Sokoni,20,TZ,1593224765,88,-6.43,39.55,77,298.15,2.6
216,Santander,95,ES,1593224765,100,43.46,-3.8,61,289.26,1.0
217,Bambanglipuro,18,ID,1593224765,71,-7.95,110.28,81,300.26,1.93
218,Altayskoye,0,RU,1593224765,69,51.95,85.33,71,294.94,2.25
219,Isangel,20,VU,1593224765,69,-19.55,169.27,77,298.15,4.1
220,Da Lat,86,VN,1593224765,61,11.95,108.44,74,296.64,0.85
221,Te Anau,78,NZ,1593224765,70,-45.42,167.72,50,283.19,0.51
222,Codrington,81,AU,1593224766,64,-38.27,141.97,53,284.71,3.78
223,Vanimo,100,PG,1593224766,61,-2.67,141.3,87,303.94,4.17
224,Hīt,0,IQ,1593224766,18,33.64,42.83,83,301.35,5.2
225,Karacaköy,0,TR,1593224766,88,41.4,28.38,73,295.93,6.2
226,Perth,20,AU,1593224384,88,-31.93,115.83,63,290.37,5.7
227,Garden City,90,US,1593224732,69,42.33,-83.33,76,297.59,7.48
228,Maniitsoq,8,GL,1593224766,89,65.42,-52.9,40,277.62,2.79
229,Aleksandrov Gay,0,RU,1593224766,75,50.15,48.57,59,287.88,3.11
230,Gigmoto,100,PH,1593224766,66,13.78,124.39,88,304.07,2.63
231,Cap Malheureux,21,MU,1593224767,86,-19.98,57.61,71,294.82,4.02
232,Zhongshu,100,CN,1593224767,80,24.52,103.77,71,294.55,4.54
233,Mossamedes,0,AO,1593224767,78,-15.2,12.15,63,290.61,0.37
234,Hong Kong,18,HK,1593224711,82,22.29,114.16,89,304.82,5.46
235,Port Elizabeth,0,ZA,1593224767,71,-33.92,25.57,50,283.15,2.6
236,Saint-Jean-de-Braye,75,FR,1593224767,82,47.91,1.98,65,291.48,4.6
237,Vila Velha,88,BR,1593224764,93,-20.33,-40.29,70,294.26,1.5
238,Klaksvík,98,FO,1593224768,100,62.23,-6.59,54,285.15,2.6
239,Malpe,75,IN,1593224768,94,13.35,74.72,77,298.15,2.6
240,Langfang,0,CN,1593224768,47,39.51,116.69,93,307.04,1.71
241,Lavrentiya,81,RU,1593224768,80,65.58,-171.0,44,279.58,15.45
242,Honningsvåg,100,NO,1593224768,90,70.98,25.97,44,280.04,9.58
243,Katsuura,70,JP,1593224768,76,35.13,140.3,82,300.93,1.34
244,Chui,100,UY,1593224768,70,-33.7,-53.46,46,280.66,3.12
245,Vostok,100,RU,1593224768,95,46.49,135.88,55,285.99,1.61
246,Banda Aceh,78,ID,1593224769,70,5.56,95.32,83,301.33,1.58
247,La Libertad,81,EC,1593224729,88,-2.23,-80.9,72,295.15,3.6
248,Aklavik,40,CA,1593224769,41,68.22,-135.01,57,287.15,6.2
249,Kiruna,9,SE,1593224769,75,67.86,20.23,46,281.15,3.1
250,Qui Nhon,54,VN,1593224769,61,13.77,109.23,88,304.33,1.68
251,Constitución,92,CL,1593224769,82,-35.33,-72.42,50,283.38,5.39
252,Pevek,71,RU,1593224767,97,69.7,170.31,31,272.78,8.05
253,Nyagan,19,RU,1593224769,63,62.14,65.39,49,282.56,1.99
254,Sibu,40,MY,1593224769,83,2.3,111.82,79,299.15,1.0
255,Saskylakh,11,RU,1593224770,27,71.92,114.08,83,301.31,6.81
256,Akureyri,90,IS,1593224580,87,65.68,-18.09,48,282.15,1.5
257,Villa Carlos Paz,48,AR,1593224770,69,-31.42,-64.5,46,280.93,4.6
258,Greytown,0,ZA,1593224770,54,-29.06,30.59,46,280.73,0.85
259,Governador Dix-Sept Rosado,74,BR,1593224770,76,-5.46,-37.52,77,298.01,4.22
260,Talavera,75,PH,1593224770,66,15.62,120.93,88,304.15,2.1
261,Godda,99,IN,1593224770,78,24.83,87.22,84,301.89,3.43
262,Ribeira Grande,99,PT,1593224770,93,38.52,-28.7,66,292.26,3.22
263,Charter Township of Clinton,100,US,1593224683,67,42.59,-82.92,77,298.15,5.7
264,Kabompo,13,ZM,1593224771,78,-13.59,24.2,52,283.99,1.39
265,Benguela,4,AO,1593224771,82,-12.58,13.41,66,292.12,1.81
266,Tanout,21,NE,1593224771,26,14.97,8.89,88,304.06,4.24
267,Esperance,0,AU,1593224694,62,-33.87,121.9,59,288.15,5.1
268,Salāya,89,IN,1593224771,76,22.32,69.6,85,302.85,5.81
269,Rocha,100,UY,1593224771,75,-34.48,-54.33,42,278.85,2.55
270,Berhida,35,HU,1593224772,77,47.11,18.13,68,293.15,3.1
271,Ulaangom,0,MN,1593224772,47,49.98,92.07,67,292.73,1.93
272,Merauke,99,ID,1593224772,78,-8.47,140.33,81,300.23,5.36
273,Carupano,37,VE,1593224772,86,10.67,-63.26,78,298.64,5.22
274,Médéa,20,DZ,1593224772,83,36.26,2.75,72,295.15,1.0
275,Tezu,100,IN,1593224772,87,27.92,96.17,75,296.97,1.72
276,Mount Gambier,90,AU,1593224727,81,-37.83,140.77,50,283.15,5.1
277,North Bend,90,US,1593224548,87,43.41,-124.22,76,297.59,9.8
278,Mabaruma,96,GY,1593224773,97,8.2,-59.78,75,297.02,1.37
279,Sītāmau,100,IN,1593224773,78,24.02,75.35,81,300.34,7.04
280,Mitsamiouli,2,KM,1593224773,72,-11.38,43.28,77,298.22,1.95
281,Gazli,0,UZ,1593224773,34,40.13,63.45,68,292.88,4.46
282,Jumla,31,NP,1593224773,61,29.27,82.18,66,292.07,0.9
283,Camacha,40,PT,1593224773,82,33.08,-16.33,68,293.15,3.6
284,Gorontalo,100,ID,1593224591,90,0.54,123.06,76,297.64,0.39
285,Puri,75,IN,1593224773,89,19.8,85.85,84,302.15,4.6
286,Caravelas,1,BR,1593224692,94,-17.71,-39.25,71,295.06,2.72
287,Esmeraldas,3,BR,1593224754,72,-19.76,-44.31,64,291.15,2.6
288,Isla Mujeres,40,MX,1593224774,83,21.23,-86.73,84,302.15,2.1
289,Sayansk,99,RU,1593224774,45,54.11,102.16,76,297.78,3.36
290,Sembakung,100,ID,1593224774,86,3.82,117.25,78,298.97,1.04
291,Newark,75,US,1593224768,39,40.74,-74.17,81,300.37,3.1
292,Sulangan,100,PH,1593224774,69,11.14,123.72,84,302.1,2.03
293,Ferrol,90,ES,1593224775,77,43.48,-8.24,67,292.59,4.1
294,Ilo,58,PE,1593224775,80,-17.64,-71.34,61,289.49,2.7
295,Monrovia,75,LR,1593224719,94,6.3,-10.8,77,298.15,4.38
296,Husavik,90,IS,1593224775,87,66.04,-17.34,48,282.15,1.5
297,Penzance,88,GB,1593224775,93,50.12,-5.54,58,287.59,8.2
298,Terney,100,RU,1593224775,90,45.05,136.61,57,286.88,3.04
299,Erzin,43,TR,1593224775,91,36.96,36.2,74,296.48,0.71
300,Kavaratti,100,IN,1593224775,78,10.57,72.64,82,301.14,8.59
301,Laurel,40,US,1593224664,44,39.1,-76.85,82,300.93,1.96
302,Bengkulu,87,ID,1593224713,69,-3.8,102.27,82,301.1,1.17
303,Torbay,75,CA,1593224540,68,47.67,-52.73,68,293.15,6.2
304,Vaitape,23,PF,1593224776,77,-16.52,-151.75,79,299.04,6.81
305,Borås,0,SE,1593224776,72,57.72,12.94,66,292.15,2.1
306,Abu Kamal,0,SY,1593224776,41,34.45,40.92,77,298.15,3.28
307,Podporozh'ye,22,RU,1593224776,73,60.91,34.17,60,288.98,3.3
308,Lianzhou,53,CN,1593224776,71,24.78,112.38,85,302.74,2.7
309,Mbandaka,55,CD,1593224776,95,0.05,18.26,69,293.88,0.83
310,Lyuban',0,BY,1593224777,92,52.8,28.0,60,288.56,2.18
311,Jining,28,CN,1593224777,52,35.41,116.58,90,305.22,1.5
312,Cayenne,10,GF,1593224777,100,4.93,-52.33,77,298.15,4.04
313,Oyama,75,JP,1593224777,74,36.3,139.8,88,304.26,1.0
314,Agüimes,75,ES,1593224777,64,27.91,-15.45,72,295.15,10.8
315,Greenwich,1,US,1593224712,49,41.03,-73.63,74,296.48,2.1
316,Włocławek,0,PL,1593224777,95,52.65,19.07,62,289.82,3.37
317,Sabang,67,ID,1593224777,73,5.89,95.32,82,300.93,2.63
318,Zinder,100,NE,1593224777,45,13.81,8.99,85,302.58,5.08
319,Carballo,90,ES,1593224777,77,43.21,-8.69,66,292.15,4.1
320,Makakilo City,1,US,1593224778,46,21.35,-158.09,90,305.15,3.6
321,Nemuro,75,JP,1593224778,93,43.32,145.57,55,286.15,4.6
322,Satipo,26,PE,1593224778,72,-11.25,-74.64,72,295.27,0.53
323,Pantayivka,0,UA,1593224778,91,48.67,32.88,62,290.06,2.08
324,Mamou,100,GN,1593224778,95,10.5,-12.0,69,293.78,0.98
325,Saint George,1,US,1593224713,11,37.1,-113.58,97,309.26,6.2
326,Tambacounda,0,SN,1593224778,60,13.75,-13.76,87,303.81,4.33
327,Kokkola,90,FI,1593224778,93,63.84,23.13,63,290.15,1.5
328,Broome,20,US,1593224699,52,42.25,-75.83,70,294.15,2.1
329,Santa Maria,88,BR,1593224715,79,-29.68,-53.81,46,280.71,2.47
330,Skibbereen,75,IE,1593224779,93,51.55,-9.27,55,286.15,2.1
331,Halifax,75,CA,1593224742,82,44.65,-63.57,67,292.59,3.1
332,Gien,100,FR,1593224779,91,47.69,2.63,65,291.48,0.89
333,Mátranovák,14,HU,1593224779,92,48.04,19.98,65,291.48,1.34
334,Lompoc,7,US,1593224679,77,34.64,-120.46,67,292.59,4.6
335,Salym,99,RU,1593224779,78,60.06,71.48,51,283.53,2.78
336,São Geraldo do Araguaia,81,BR,1593224779,74,-6.4,-48.55,74,296.75,0.3
337,Crib Point,55,AU,1593224779,89,-38.35,145.2,53,284.82,1.66
338,Paragominas,86,BR,1593224779,98,-2.97,-47.48,72,295.2,1.16
339,Ongandjera,0,NA,1593224779,36,-17.88,15.07,55,286.15,3.75
340,Vila Franca do Campo,20,PT,1593224780,82,37.72,-25.43,66,292.15,1.5
341,Scarborough,3,GB,1593224780,90,54.28,-0.4,63,290.37,2.79
342,Laas,41,IT,1593224780,100,46.62,10.7,57,287.04,1.0
343,Imbituba,100,BR,1593224593,58,-28.24,-48.67,57,287.15,5.7
344,Coyhaique,90,CL,1593224780,92,-45.58,-72.07,32,273.15,1.5
345,Turukhansk,99,RU,1593224780,85,65.82,87.98,62,290.08,5.79
346,San Cristobal,2,VE,1593224780,86,7.77,-72.22,66,291.77,1.36
347,Kosonsoy,40,UZ,1593224780,68,41.26,71.55,70,294.15,4.1
348,Warmbad,0,NA,1593224780,78,-28.45,18.73,41,278.11,0.33
349,Muli,100,MV,1593224780,75,2.92,73.57,83,301.53,3.91
350,Ardakān,0,IR,1593224781,28,32.31,54.02,81,300.15,5.1
351,Kapoeta,89,SS,1593224699,78,4.77,33.59,74,296.66,1.71
352,Hamilton,1,US,1593224781,73,39.18,-84.53,80,299.82,3.6
353,Khorramshahr,0,IR,1593224781,30,30.44,48.17,84,302.15,2.1
354,Zanjān,67,IR,1593224781,77,36.67,48.48,54,285.12,4.29
355,Abbotsford,75,CA,1593224570,77,49.06,-122.25,67,292.59,4.1
356,San Quintín,0,MX,1593224781,79,30.48,-115.95,66,292.07,5.31
357,Bathsheba,40,BB,1593224781,78,13.22,-59.52,82,301.15,11.3
358,São Filipe,82,CV,1593224781,78,14.9,-24.5,74,296.4,1.5
359,Ust-Nera,7,RU,1593224782,28,64.57,143.2,78,298.65,2.04
360,Thyborøn,0,DK,1593224782,71,56.7,8.21,64,290.93,4.88
361,Matata,100,NZ,1593224782,93,-37.88,176.75,61,289.26,2.24
362,Vanavara,0,RU,1593224782,41,60.34,102.28,79,299.52,1.09
363,Nakusp,100,CA,1593224782,86,50.25,-117.8,64,290.93,0.45
364,Kampene,44,CD,1593224782,90,-3.6,26.67,67,292.5,0.63
365,Cim,0,BA,1593224782,82,43.35,17.78,64,291.15,0.5
366,Guerrero,9,MX,1593224782,77,17.67,-100.0,69,293.81,1.46
367,Colac,45,AU,1593224783,84,-38.33,143.58,52,284.26,1.51
368,Talnakh,75,RU,1593224707,64,69.49,88.4,68,293.15,8.0
369,Pangai,40,TO,1593224783,69,-19.8,-174.35,81,300.15,4.6
370,Kahului,40,US,1593224783,46,20.89,-156.47,90,305.15,10.3
371,Sittwe,100,MM,1593224783,81,20.15,92.9,82,301.17,3.06
372,Kyshtovka,100,RU,1593224783,95,56.55,76.63,51,283.84,7.53
373,Ribeirão Branco,100,BR,1593224783,97,-24.22,-48.77,53,284.76,4.74
374,Port Lincoln,0,AU,1593224783,47,-34.73,135.87,60,288.67,6.03
375,Severo-Kuril'sk,72,RU,1593224783,61,50.68,156.12,54,285.33,4.57
376,Kumul,100,CN,1593224783,55,42.8,93.45,71,294.83,4.83
377,Opuwo,0,NA,1593224784,47,-18.06,13.84,50,283.02,2.6
378,Wattegama,20,LK,1593224784,100,6.8,81.48,77,298.15,3.1
379,Kibala,91,TD,1593224784,83,9.11,18.35,74,296.74,1.83
380,Mangalore,75,IN,1593224784,94,12.87,74.88,77,298.15,2.6
381,Asău,0,RO,1593224700,89,46.43,26.4,57,287.04,1.11
382,Sivas Province,40,TR,1593224784,100,39.79,37.0,48,282.15,3.6
383,Mana,76,GF,1593224785,89,5.66,-53.78,77,298.4,3.2
384,Morehead,40,US,1593224785,83,37.27,-87.18,77,298.15,3.6
385,Kargopol',100,RU,1593224785,89,61.51,38.95,59,288.05,3.13
386,Kandrian,95,PG,1593224785,83,-6.22,149.55,81,300.53,5.81
387,Houndé,66,BF,1593224785,76,11.5,-3.52,80,299.65,5.27
388,Rayachoti,61,IN,1593224785,61,14.05,78.75,84,302.16,2.27
389,Makat,4,KZ,1593224786,47,47.65,53.35,64,291.2,6.03
390,Omsukchan,95,RU,1593224786,36,62.53,155.8,75,296.87,3.59
391,Quatre Cocos,75,MU,1593224786,94,-20.21,57.76,72,295.15,5.7
392,Zhangaözen,0,KZ,1593224786,38,43.3,52.8,62,289.79,3.76
393,Cairns,90,AU,1593224706,50,-16.92,145.77,77,298.15,5.7
394,Tambopata,47,PE,1593224786,98,-12.73,-69.18,72,295.16,1.97
395,Vacaria,100,BR,1593224786,72,-28.51,-50.93,41,278.15,2.59
396,São Félix do Xingu,0,BR,1593224786,78,-6.64,-51.99,71,294.85,0.98
397,Pag,0,HR,1593224786,87,44.45,15.06,59,288.15,1.5
398,Mildura,90,AU,1593224787,50,-34.2,142.15,58,287.59,2.1
399,Nador,0,MA,1593224516,61,35.17,-2.93,77,298.15,5.7
400,North Platte,1,US,1593224784,57,41.12,-100.77,80,299.82,2.1
401,Dūkštas,0,LT,1593224787,93,55.53,26.33,61,289.47,1.6
402,Paris,75,FR,1593224378,77,48.85,2.35,68,293.15,3.1
403,Vardø,100,NO,1593224727,89,70.37,31.11,46,280.68,11.08
404,Bokoro,7,TD,1593224787,59,12.38,17.06,83,301.59,3.3
405,Bow Island,90,CA,1593224787,44,49.87,-111.37,81,300.15,3.6
406,Kysyl-Syr,0,RU,1593224788,32,63.9,122.76,84,302.06,1.28
407,Mbarara,99,UG,1593224788,74,-0.61,30.65,62,290.09,1.36
408,Mastic Beach,1,US,1593224788,73,40.77,-72.85,75,297.04,1.5
409,Rørvik,51,NO,1593224788,83,64.86,11.24,57,286.79,6.34
410,Alofi,73,NU,1593224704,65,-19.06,-169.92,79,299.15,6.2
411,Flinders,7,AU,1593224722,59,-34.58,150.86,62,289.82,1.79
412,Siniscola,0,IT,1593224788,82,40.57,9.69,61,289.15,1.0
413,Peterhead,90,GB,1593224699,100,57.51,-1.8,57,287.04,1.5
414,Campestre,28,BR,1593224788,92,-21.71,-46.25,59,288.33,1.64
415,Tekirdağ,1,TR,1593224672,93,40.98,27.51,64,291.15,2.6
416,El Dorado,90,US,1593224789,100,33.21,-92.67,79,299.15,2.6
417,Bagarji,0,PK,1593224789,66,27.76,68.75,88,304.15,4.1
418,Coquimbo,1,CL,1593224789,87,-29.95,-71.34,52,284.15,2.6
419,Kamaishi,75,JP,1593224713,83,39.27,141.88,72,295.15,3.1
420,Umluj,9,SA,1593224789,41,25.02,37.27,83,301.47,3.82
421,Anloga,20,GH,1593224789,94,5.79,0.9,72,295.15,1.0
422,Tibagi,100,BR,1593224789,93,-24.51,-50.41,59,288.1,2.04
423,Bundibugyo,100,UG,1593224789,90,0.74,30.04,66,292.17,1.26
424,Mozarlândia,100,BR,1593224790,49,-14.74,-50.57,72,295.46,1.01
425,Yar-Sale,80,RU,1593224790,72,66.83,70.83,55,286.14,0.91
426,Tuatapere,87,NZ,1593224725,63,-46.13,167.68,54,285.11,1.07
427,Sheremet'yevskiy,0,RU,1593224790,77,55.98,37.49,63,290.15,4.0
428,Palu,95,ID,1593224790,77,-0.89,119.87,81,300.4,0.73
429,Conakry,52,GN,1593224790,80,9.54,-13.68,80,299.92,2.18
430,Salmās,0,IR,1593224790,76,38.2,44.77,57,287.15,1.0
431,Labuhan,51,ID,1593224791,72,-6.88,112.21,81,300.15,2.72
432,Kutum,51,SD,1593224791,45,14.2,24.67,72,295.41,1.51
433,Aksha,0,RU,1593224791,48,50.28,113.29,76,297.37,2.15
434,Pangnirtung,30,CA,1593224791,68,66.15,-65.71,49,282.62,1.23
435,Paratinga,91,BR,1593224791,55,-12.69,-43.18,73,295.67,2.39
436,Lac du Bonnet,97,CA,1593224791,37,50.25,-96.06,78,298.71,2.39
437,Maceió,40,BR,1593224702,94,-9.67,-35.74,72,295.15,1.0
438,Anadyr,40,RU,1593224792,49,64.75,177.48,46,281.15,9.0
439,Esso,5,RU,1593224792,24,55.93,158.7,70,294.08,4.6
440,Fairview,1,US,1593224792,41,40.81,-74.0,82,301.15,2.74
441,Omaruru,0,NA,1593224792,60,-21.43,15.93,43,279.13,1.59
442,Smithers,75,CA,1593224792,76,54.78,-127.17,55,286.15,1.5
443,Mumford,85,GH,1593224792,90,5.26,-0.76,76,297.82,4.48
444,Taksimo,1,RU,1593224792,44,56.34,114.88,74,296.66,0.38
445,Katunino,40,RU,1593224792,93,64.39,40.63,52,284.15,2.0
446,Necochea,67,AR,1593224792,93,-38.55,-58.74,42,278.71,1.79
447,Venado Tuerto,66,AR,1593224793,72,-33.75,-61.97,42,278.71,1.79
448,São João da Barra,18,BR,1593224793,88,-21.64,-41.05,69,293.7,2.42
449,Eidsvåg,0,NO,1593224793,77,62.78,8.07,64,291.15,4.1
450,Puerto Nariño,75,CO,1593224793,100,-3.77,-70.38,77,298.15,1.0
451,Cardoso,35,BR,1593224793,69,-20.08,-49.91,72,295.43,0.39
452,Campos Novos,100,BR,1593224793,82,-27.4,-51.23,45,280.55,1.93
453,Mormugao,75,IN,1593224793,94,15.4,73.8,81,300.15,2.6
454,Grindavik,75,IS,1593224716,93,63.84,-22.43,48,282.15,4.1
455,Westport,1,US,1593224727,64,41.14,-73.36,75,297.15,1.5
456,Bria,69,CF,1593224794,94,6.54,21.99,67,292.43,0.39
457,Gurupá,7,BR,1593224794,96,-1.41,-51.64,73,296.03,1.2
458,Nabire,93,ID,1593224794,63,-3.37,135.48,86,303.17,2.01
459,Puerto Colombia,20,CO,1593224617,83,10.99,-74.95,82,301.15,4.6
460,Rawson,52,AR,1593224711,76,-43.3,-65.1,39,276.83,6.3
461,Burnie,40,AU,1593224718,55,-41.07,145.92,54,285.37,1.79
462,Jiangmen,54,CN,1593224794,84,22.58,113.08,95,308.15,1.34
463,Abalak,0,RU,1593224794,71,58.13,68.59,51,283.98,2.7
464,Sur,1,OM,1593224795,69,22.57,59.53,85,302.63,3.18
465,Koslan,85,RU,1593224795,94,63.46,48.9,52,284.06,3.8
466,Immenstadt,0,DE,1593224795,94,47.56,10.22,56,286.48,0.45
467,Nizhniy Kuranakh,72,RU,1593224795,44,58.84,125.49,75,297.2,1.45
468,Aras,98,ES,1593224795,93,42.56,-2.36,61,289.15,2.1
469,Manokwari,100,ID,1593224552,67,-0.87,134.08,85,302.45,3.32
470,Alappuzha,97,IN,1593224795,84,9.49,76.33,80,300.0,4.68
471,Diré,100,ML,1593224796,77,12.28,-10.97,76,297.43,0.2
472,Westlock,75,CA,1593224796,68,54.15,-113.87,66,292.15,4.6
473,Sioux Lookout,40,CA,1593224730,64,50.1,-91.92,70,294.15,2.1
474,Milan,12,IT,1593224666,62,45.46,9.19,75,297.04,1.34
475,Puerto del Rosario,75,ES,1593224796,77,28.5,-13.86,70,294.15,8.2
476,Booué,18,GA,1593224796,90,-0.09,11.94,71,294.75,1.3
477,Kilindoni,44,TZ,1593224796,80,-7.91,39.67,78,298.61,7.32
478,Zeya,99,RU,1593224796,60,53.75,127.27,68,293.04,2.13
479,Ajdabiya,0,LY,1593224796,64,30.76,20.23,71,294.82,3.65
480,Satara,100,IN,1593224797,85,17.68,73.98,75,296.77,1.6
481,Pokaran,0,IN,1593224797,61,26.92,71.92,88,304.01,8.84
482,Safi,16,MA,1593224797,84,32.3,-9.24,66,291.99,6.55
483,Vernon,90,CA,1593224797,50,50.26,-119.27,75,297.15,3.1
484,Chapais,20,CA,1593224797,87,49.78,-74.85,57,287.15,1.5
485,Porangatu,40,BR,1593224797,56,-13.44,-49.15,70,294.5,0.46
486,Ketchikan,90,US,1593224797,93,55.34,-131.65,57,287.15,2.6
487,Māngrol,51,IN,1593224798,75,21.12,70.12,86,302.88,4.71
488,Pitimbu,75,BR,1593224798,94,-7.47,-34.81,73,296.15,2.1
489,Kodaikānāl,97,IN,1593224798,100,10.23,77.48,59,287.96,1.29
490,Ruteng,69,ID,1593224798,74,-8.61,120.47,73,296.02,1.01
491,Berezovyy,95,RU,1593224798,52,51.67,135.7,72,295.2,2.16
492,Svarstad,59,NO,1593224798,1,59.4,9.97,62,289.82,0.65
493,Emilio Carranza,83,MX,1593224798,82,19.97,-96.61,80,299.64,5.0
494,Seminole,1,US,1593224798,74,28.71,-81.21,84,302.04,2.1
495,Linda,1,US,1593224798,31,39.13,-121.55,102,312.15,4.6
496,Champerico,8,GT,1593224799,78,14.3,-91.92,82,300.87,3.06
497,Macomb,1,US,1593224799,65,40.46,-90.67,82,301.15,5.7
498,Rafrāf,20,TN,1593224799,78,37.19,10.18,75,297.15,2.6
499,Mount Isa,0,AU,1593224799,23,-20.73,139.5,75,297.15,2.6
500,Metro,51,ID,1593224799,78,-5.11,105.31,82,301.02,0.76
501,Port Macquarie,57,AU,1593224576,65,-31.43,152.92,65,291.48,0.89
502,Alyangula,75,AU,1593224601,58,-13.85,136.42,84,302.15,4.6
503,Departamento de Maldonado,75,UY,1593224799,93,-34.67,-54.92,49,282.59,2.1
504,San Miguel de Cozumel,5,MX,1593224673,88,20.51,-86.95,84,302.04,2.1
505,Tura,100,IN,1593224720,98,25.52,90.22,74,296.73,4.14
506,Virginia Beach,75,US,1593224731,69,36.85,-75.98,79,299.26,2.1
507,Yumen,48,CN,1593224699,47,40.28,97.2,67,292.76,7.51
508,Chestermere,75,CA,1593224580,67,51.03,-113.82,63,290.15,5.1
509,Klyuchi,95,RU,1593224800,46,52.27,79.17,77,298.03,8.85
510,Iquique,5,CL,1593224800,77,-20.22,-70.14,59,288.15,2.6
511,Grenville,40,GD,1593224673,83,12.12,-61.62,82,301.15,8.2
512,North Battleford,75,CA,1593224800,68,52.78,-108.28,67,292.59,3.1
513,Barinitas,1,VE,1593224800,79,8.76,-70.41,71,294.65,1.89
514,Moyale,100,KE,1593224800,89,3.52,39.06,65,291.44,3.94
515,Bagumbayan,93,PH,1593224801,64,17.72,121.45,88,304.23,2.96
516,Dingle,100,PH,1593224801,66,11.0,122.67,87,303.73,0.29
517,Iqaluit,40,CA,1593224712,81,63.75,-68.51,43,279.15,1.89
518,Palāsa,100,IN,1593224801,76,18.77,84.42,84,301.95,4.09
519,Biltine,59,TD,1593224801,43,14.53,20.92,79,299.47,2.8
520,Chico,20,US,1593224801,28,39.73,-121.84,104,313.15,3.6
521,Ambon City,75,ID,1593224801,94,-3.7,128.18,81,300.37,2.1
522,Taltal,0,CL,1593224600,71,-25.4,-70.48,57,287.19,2.11
523,Palmer,7,US,1593224801,73,42.16,-72.33,68,293.15,0.69
524,Galle,34,LK,1593224615,84,6.04,80.22,82,300.76,4.7
525,Atasū,65,KZ,1593224802,73,48.68,71.64,59,288.36,5.27
526,Byron Bay,75,AU,1593224601,93,-28.65,153.62,60,288.71,4.6
527,Kwang Binh,55,VN,1593224802,59,17.48,106.6,88,304.49,3.69
528,Beisfjord,46,NO,1593224802,87,68.38,17.6,48,282.15,6.7
529,Manyana,0,BW,1593224802,66,-23.4,21.72,41,278.11,2.15
530,Umm Kaddadah,65,SD,1593224802,33,13.6,26.69,89,304.9,6.04
531,Araouane,42,ML,1593224803,10,18.9,-3.53,96,308.5,3.25
532,Berbera,11,SO,1593224803,45,10.44,45.01,90,305.44,9.78
533,Aleksandrovsk-Sakhalinskiy,100,RU,1593224803,85,50.9,142.16,55,285.78,0.67
534,Grand Gaube,18,MU,1593224803,86,-20.01,57.66,71,294.82,4.02
535,Taihe,100,CN,1593224803,86,30.87,105.38,72,295.24,2.72
536,Montijo,75,PT,1593224803,77,38.71,-8.97,68,293.15,3.6
537,Xam Nua,100,LA,1593224804,66,20.42,104.04,77,298.27,1.81
538,Muravlenko,97,RU,1593224804,84,63.79,74.52,51,283.56,6.82
539,Matara,42,LK,1593224804,83,5.95,80.54,81,300.4,3.94
