City_ID,City,Cloudiness,Country,Date,Humidity,Lat,Lon,Max Temp,Max Temp K,Wind Speed
0,Ayagoz,48,KZ,1593139265,41,47.97,80.44,73,296.06,2.13
1,Vestmannaeyjar,100,IS,1593139483,82,63.44,-20.27,51,283.68,3.25
2,Puerto Ayora,35,EC,1593139483,93,-0.74,-90.35,70,294.26,3.15
3,Rikitea,29,PF,1593139483,85,-23.12,-134.97,75,297.3,11.04
4,Quebo,84,GW,1593139484,92,11.33,-14.93,77,298.0,1.46
5,Zhigansk,36,RU,1593139484,42,66.77,123.37,77,298.04,1.67
6,Kapaa,40,US,1593139484,70,22.08,-159.32,84,302.15,6.2
7,Turaif,0,SA,1593139484,56,31.67,38.66,68,293.15,4.1
8,Berlevåg,44,NO,1593139485,74,70.86,29.09,50,283.27,11.53
9,Praia,20,CV,1593139485,78,14.92,-23.51,75,297.15,5.1
10,Carndonagh,100,IE,1593139485,93,55.25,-7.27,59,288.38,1.73
11,San Cristobal,67,VE,1593139485,85,7.77,-72.22,65,291.64,1.5
12,Albany,6,US,1593139339,94,42.6,-73.97,69,293.71,1.39
13,Souillac,40,MU,1593139486,78,-20.52,57.52,72,295.15,6.2
14,Ust-Tsilma,99,RU,1593139486,80,65.44,52.15,43,279.46,3.08
15,Chernyshevskiy,0,RU,1593139486,39,63.01,112.47,77,298.28,1.74
16,Port Elizabeth,2,ZA,1593139486,93,-33.92,25.57,59,288.15,3.6
17,Ostrovnoy,100,RU,1593139486,90,68.05,39.51,50,282.93,3.5
18,Vaini,20,TO,1593139486,74,-21.2,-175.2,81,300.15,3.6
19,Chokurdakh,34,RU,1593139487,37,70.63,147.92,60,288.62,5.77
20,Cape Town,75,ZA,1593139358,87,-33.93,18.42,57,287.04,3.1
21,Ixtapa,90,MX,1593139487,74,20.7,-105.2,84,302.15,1.5
22,Makakilo City,40,US,1593139487,55,21.35,-158.09,88,304.15,3.6
23,Sunrise Manor,1,US,1593139487,7,36.21,-115.07,104,313.15,7.2
24,Punta Arenas,21,CL,1593139488,92,-53.15,-70.92,27,270.15,3.1
25,Vanimo,74,PG,1593139488,58,-2.67,141.3,88,304.27,5.17
26,Coruripe,0,BR,1593139223,84,-10.13,-36.18,74,296.6,4.25
27,Bedford,86,GB,1593139387,85,52.13,-0.47,64,290.93,1.75
28,Hobart,20,AU,1593139461,58,-42.88,147.33,50,283.15,1.5
29,Ushuaia,20,AR,1593139488,74,-54.8,-68.3,36,275.15,9.3
30,Atuona,30,PF,1593139489,77,-9.8,-139.03,80,299.69,6.41
31,Provideniya,40,RU,1593139489,65,64.38,-173.3,46,281.15,8.0
32,Port Alfred,98,ZA,1593139489,90,-33.59,26.89,63,290.37,1.79
33,Half Moon Bay,90,US,1593139329,87,37.46,-122.43,72,295.37,3.6
34,Rohru,0,IN,1593139489,62,31.22,77.75,70,294.14,1.69
35,Avera,1,US,1593139200,86,33.19,-82.53,75,297.15,2.6
36,Rørvik,25,NO,1593139490,78,64.86,11.24,57,286.9,3.36
37,Castro,100,BR,1593139490,96,-24.79,-50.01,59,288.09,1.59
38,Lebu,99,CL,1593139490,86,-37.62,-73.65,46,281.15,5.18
39,Amapá,29,BR,1593139490,98,1.0,-52.0,71,294.87,0.59
40,Mataura,99,NZ,1593139490,71,-46.19,168.86,48,282.09,1.31
41,Umm Kaddadah,79,SD,1593139491,47,13.6,26.69,84,301.86,5.91
42,Nola,0,IT,1593139491,77,40.92,14.53,70,294.15,1.5
43,Qaanaaq,21,GL,1593139491,85,77.48,-69.36,35,275.07,1.11
44,Madera,65,US,1593139491,29,37.17,-119.83,93,307.04,0.45
45,Conde,100,BR,1593139491,90,-7.26,-34.91,74,296.27,3.79
46,Lata,89,PT,1593139491,84,40.16,-8.33,63,290.37,1.87
47,Isangel,87,VU,1593139491,79,-19.55,169.27,74,296.71,7.36
48,George Town,20,MY,1593139351,79,5.41,100.34,84,302.15,2.6
49,Kamaishi,75,JP,1593139492,100,39.27,141.88,64,291.15,1.5
50,Norman Wells,75,CA,1593139492,59,65.28,-126.83,64,291.15,4.6
51,Yellowknife,40,CA,1593139492,55,62.46,-114.35,64,290.93,3.6
52,Hithadhoo,49,MV,1593139492,74,-0.6,73.08,84,302.2,4.65
53,Montevideo,40,UY,1593139444,70,-34.83,-56.17,49,282.59,5.7
54,Kumul,100,CN,1593139493,20,42.8,93.45,86,302.9,3.15
55,Nikolskoye,5,RU,1593139493,72,59.7,30.79,64,291.15,1.0
56,Hermanus,68,ZA,1593139493,90,-34.42,19.23,53,284.82,1.34
57,Cherskiy,7,RU,1593139493,55,68.75,161.3,51,283.66,11.68
58,Bilma,0,NE,1593139493,15,18.69,12.92,84,301.85,2.48
59,Yar-Sale,100,RU,1593139493,73,66.83,70.83,53,284.62,5.53
60,Saint Paul Harbor,90,US,1593139494,81,57.79,-152.41,52,284.15,5.7
61,Sur,0,OM,1593139494,67,22.57,59.53,86,303.27,4.0
62,Belmonte,40,BR,1593139455,88,-15.86,-38.88,70,294.15,1.0
63,Busselton,8,AU,1593139494,72,-33.65,115.33,61,289.26,8.26
64,Mossamedes,0,AO,1593139494,69,-15.2,12.15,65,291.54,1.75
65,Kununurra,9,AU,1593139494,16,-15.77,128.73,77,298.15,4.6
66,Gizo Government Station,44,SB,1593139495,77,-8.1,156.84,84,301.78,6.08
67,Camacha,40,PT,1593139495,68,33.08,-16.33,66,292.15,4.6
68,Hobyo,46,SO,1593139495,74,5.35,48.53,79,299.27,8.61
69,Torbay,90,CA,1593139495,100,47.67,-52.73,67,292.59,8.7
70,Ust-Maya,8,RU,1593139495,33,60.42,134.53,81,300.5,1.9
71,Khovd,100,MN,1593139496,51,48.01,91.64,63,290.49,3.63
72,Huangnihe,100,CN,1593139496,96,43.56,128.02,58,287.81,1.87
73,Jamestown,1,US,1593139291,77,42.1,-79.24,63,290.15,3.6
74,Doha,0,QA,1593139320,41,25.29,51.53,93,307.15,5.1
75,Bluff,82,NZ,1593139496,67,-46.6,168.33,49,282.4,2.18
76,Manokwari,57,ID,1593139496,70,-0.87,134.08,85,302.55,4.07
77,Airai,6,TL,1593139496,57,-8.93,125.41,71,294.6,2.05
78,Kavieng,25,PG,1593139497,71,-2.57,150.8,86,302.94,6.95
79,Bredasdorp,100,ZA,1593139497,82,-34.53,20.04,57,287.15,3.6
80,Khatanga,53,RU,1593139497,48,71.97,102.5,74,296.7,5.73
81,Jinka,5,ET,1593139497,80,5.65,36.65,61,289.31,1.72
82,Ippy,100,CF,1593139497,94,6.27,21.22,67,292.53,0.88
83,Mar del Plata,5,AR,1593139497,65,-38.0,-57.56,43,279.26,4.1
84,Mercedes,40,AR,1593139497,66,-34.65,-59.43,43,279.26,0.45
85,Corinth,0,GR,1593139498,45,37.94,22.96,76,297.59,0.45
86,Yulara,0,AU,1593139498,30,-25.24,130.99,59,288.15,6.2
87,Norton,48,ZW,1593139498,92,-17.88,30.7,51,283.47,1.94
88,Barrow,90,US,1593139325,81,71.29,-156.79,45,280.15,4.6
89,Itarema,96,BR,1593139498,77,-2.92,-39.92,78,298.49,4.03
90,Chui,0,UY,1593139498,80,-33.7,-53.46,45,280.31,4.31
91,Upernavik,1,GL,1593139499,90,72.79,-56.15,37,275.79,2.43
92,Mackenzie,90,CA,1593139499,44,55.3,-123.17,59,288.15,3.1
93,Butaritari,18,KI,1593139499,67,3.07,172.79,84,301.84,4.77
94,Batagay-Alyta,23,RU,1593139499,30,67.8,130.41,80,299.96,2.49
95,Salamanca,0,ES,1593139499,87,40.83,-6.0,59,288.15,2.6
96,Fortuna,1,US,1593139500,87,40.6,-124.16,61,289.26,4.1
97,Waitati,92,NZ,1593139500,83,-45.75,170.57,54,285.37,15.65
98,Hong Kong,100,HK,1593139456,62,22.29,114.16,90,305.37,7.15
99,Bambous Virieux,40,MU,1593139500,78,-20.34,57.76,73,295.93,6.2
100,Saint-Leu,7,RE,1593139500,73,-21.15,55.28,72,295.15,10.8
101,Usinsk,100,RU,1593139500,89,65.99,57.53,42,278.71,5.56
102,São Filipe,15,CV,1593139501,80,14.9,-24.5,74,296.53,3.24
103,Gobabis,0,NA,1593139501,60,-22.45,18.97,39,277.15,0.5
104,Makkah al Mukarramah,0,SA,1593139457,25,21.43,39.83,82,300.97,2.86
105,Marondera,7,ZW,1593139501,96,-18.19,31.55,45,280.44,0.36
106,Katsuura,75,JP,1593139502,88,35.13,140.3,82,300.93,10.8
107,Praia da Vitória,75,PT,1593139502,100,38.73,-27.07,66,292.15,6.42
108,Baculin,98,PH,1593139502,69,7.45,126.58,84,302.26,1.79
109,Saint-Augustin,100,CA,1593139502,95,51.23,-58.65,59,287.93,3.69
110,Lagoa,100,PT,1593139502,93,39.05,-27.98,66,292.09,6.42
111,Thompson,75,CA,1593139467,88,55.74,-97.86,64,291.15,2.1
112,Saint-Pierre,1,RE,1593139503,73,-21.34,55.48,72,295.15,10.8
113,Kaitangata,29,NZ,1593139503,71,-46.28,169.85,54,285.37,0.89
114,Cervo,38,ES,1593139503,83,43.67,-7.41,62,289.82,0.45
115,Tiksi,84,RU,1593139503,79,71.69,128.87,49,282.63,2.19
116,Mokobeng,32,BW,1593139503,74,-23.0,27.67,53,284.54,2.25
117,Ilulissat,100,GL,1593139504,86,69.22,-51.1,39,277.15,2.1
118,New Norfolk,25,AU,1593139504,75,-42.78,147.06,50,283.15,0.45
119,Arraial do Cabo,49,BR,1593139341,80,-22.97,-42.03,72,295.31,6.94
120,Vila Velha,20,BR,1593139504,83,-20.33,-40.29,72,295.15,2.1
121,Constitución,98,CL,1593139505,73,-35.33,-72.42,48,282.18,2.18
122,Lingao,100,CN,1593139505,55,19.91,109.69,93,307.31,1.74
123,Longyearbyen,75,SJ,1593139505,76,78.22,15.64,48,282.15,2.6
124,Abu Kamal,0,SY,1593139505,41,34.45,40.92,78,298.65,6.46
125,Sainte-Maxime,1,FR,1593139505,82,43.3,6.63,64,290.93,1.92
126,Zemio,86,CF,1593139505,97,5.03,25.14,67,292.68,1.59
127,Severo-Kuril'sk,0,RU,1593139505,61,50.68,156.12,53,285.05,5.09
128,Regenstauf,1,DE,1593139506,87,49.12,12.13,54,285.37,0.83
129,Kisangani,100,CD,1593139506,95,0.52,25.2,70,294.38,0.8
130,Rundu,0,NA,1593139506,65,-17.93,19.77,45,280.15,0.5
131,Clarence Town,0,AU,1593139506,51,-32.58,151.78,63,290.15,3.6
132,Vila Franca do Campo,75,PT,1593139506,100,37.72,-25.43,64,291.15,4.6
133,Santa Rosa,75,PH,1593139507,59,14.31,121.11,94,307.59,5.1
134,Grindavik,75,IS,1593139507,87,63.84,-22.43,48,282.15,3.1
135,Cidreira,45,BR,1593139467,75,-30.18,-50.21,54,285.4,6.12
136,Bengkulu,0,ID,1593139507,63,-3.8,102.27,84,302.04,1.09
137,Cap Malheureux,2,MU,1593139507,71,-19.98,57.61,73,295.93,5.36
138,Östersund,16,SE,1593139507,77,63.18,14.64,61,289.15,1.0
139,Mnogovershinnyy,99,RU,1593139508,84,53.94,139.92,53,284.59,1.03
140,Mayumba,60,GA,1593139508,90,-3.43,10.66,70,294.53,0.86
141,PEMEX,100,MX,1593139508,89,18.44,-96.35,77,298.36,0.44
142,Tazovsky,51,RU,1593139508,58,67.47,78.7,60,288.69,5.37
143,Batemans Bay,0,AU,1593139508,50,-35.72,150.18,62,289.82,0.45
144,Santa Marta,92,CO,1593139228,86,11.24,-74.2,80,299.82,7.74
145,Labuhan,100,ID,1593139509,66,-6.88,112.21,83,301.36,1.49
146,Carutapera,12,BR,1593139420,92,-1.2,-46.02,75,297.04,1.89
147,Montague,21,US,1593139509,65,42.54,-72.54,69,293.71,0.67
148,Kiama,20,AU,1593139509,42,-34.68,150.87,64,290.93,3.1
149,Saint-Louis,97,SN,1593139509,64,16.33,-15.0,78,298.73,7.18
150,Saskylakh,43,RU,1593139509,23,71.92,114.08,88,304.18,4.92
151,Avarua,10,CK,1593139509,64,-21.21,-159.78,75,297.15,1.5
152,Egvekinot,100,RU,1593139510,99,66.32,-179.17,40,277.38,4.61
153,Pevek,100,RU,1593139510,98,69.7,170.31,31,272.75,7.93
154,North Bend,90,US,1593139510,100,43.41,-124.22,70,294.26,11.8
155,Puerto El Triunfo,37,SV,1593139511,94,13.28,-88.55,77,298.15,1.0
156,Carnarvon,40,AU,1593139511,49,-24.87,113.63,72,295.15,3.6
157,Saint-Philippe,34,RE,1593139511,73,-21.36,55.77,72,295.15,10.8
158,Yangi Marg`ilon,100,UZ,1593139511,30,40.43,71.72,81,300.15,3.1
159,Buin,75,CL,1593139511,75,-33.73,-70.75,46,281.15,4.6
160,Andijan,75,UZ,1593139511,43,40.78,72.34,73,296.15,2.0
161,East London,55,ZA,1593139257,25,-33.02,27.91,72,295.17,6.17
162,Clyde River,1,CA,1593139512,86,70.47,-68.59,39,277.15,3.1
163,Auki,18,SB,1593139512,58,-8.77,160.7,88,304.4,2.75
164,Kasongo-Lunda,100,CD,1593139512,48,-6.47,16.82,64,291.18,0.48
165,Beyneu,6,KZ,1593139513,42,45.32,55.2,71,294.92,8.43
166,Falam,100,MM,1593139513,93,22.92,93.68,68,293.12,1.49
167,Gouré,35,NE,1593139513,29,13.98,10.27,90,305.37,3.3
168,Gáldar,20,ES,1593139513,68,28.15,-15.65,72,295.15,10.3
169,Narutochō-mitsuishi,75,JP,1593139514,78,34.18,134.62,82,301.15,5.1
170,Sørland,64,NO,1593139514,88,67.67,12.69,52,284.06,5.86
171,Tezpur,100,IN,1593139388,97,26.63,92.8,77,297.9,0.61
172,Mahébourg,40,MU,1593139514,78,-20.41,57.7,72,295.15,6.2
173,Te Anau,98,NZ,1593139514,67,-45.42,167.72,46,281.15,0.59
174,Ponta do Sol,40,PT,1593139514,64,32.67,-17.1,68,293.15,4.1
175,Oktyabr'skiy,23,RU,1593139514,78,54.48,53.47,49,282.59,3.47
176,Bamenda,82,CM,1593139515,91,5.95,10.16,62,289.83,1.0
177,Arrondissement de Moulins,100,FR,1593139515,72,46.5,3.33,67,292.59,1.0
178,Dikson,100,RU,1593139515,93,73.51,80.55,37,275.8,3.68
179,Luanda,75,AO,1593138838,83,-8.84,13.23,73,296.15,1.5
180,Ternate,100,ID,1593139515,81,0.8,127.4,81,300.15,0.06
181,Vinh,100,VN,1593139515,50,18.67,105.67,94,307.85,3.33
182,Pisco,40,PE,1593139515,82,-13.7,-76.22,63,290.15,2.1
183,Skibbereen,75,IE,1593139515,93,51.55,-9.27,59,288.15,3.1
184,Beloha,26,MG,1593139516,84,-25.17,45.05,65,291.41,4.82
185,Cravo Norte,37,CO,1593139516,90,6.3,-70.2,75,297.08,2.29
186,Bandarbeyla,92,SO,1593139516,63,9.49,50.81,82,301.11,11.7
187,Hecun,100,CN,1593139516,35,36.53,114.11,88,304.27,2.73
188,Kropotkin,0,RU,1593139516,74,45.44,40.58,62,289.58,5.52
189,Santa Vitória do Palmar,0,BR,1593139296,78,-33.52,-53.37,45,280.65,4.36
190,Flin Flon,2,CA,1593139517,58,54.77,-101.86,65,291.53,1.96
191,Paraná,0,AR,1593139517,72,-31.73,-60.52,47,281.48,0.89
192,Pitimbu,100,BR,1593139517,83,-7.47,-34.81,77,297.97,4.92
193,Sosnovo-Ozerskoye,0,RU,1593139517,37,52.52,111.54,74,296.7,2.95
194,Umluj,0,SA,1593139517,73,25.02,37.27,79,299.53,3.92
195,Meulaboh,100,ID,1593139518,71,4.14,96.13,83,301.58,1.39
196,Lingyuan,11,CN,1593139518,42,41.24,119.4,79,299.16,1.19
197,Bodden Town,4,KY,1593139518,80,19.28,-81.25,84,302.04,1.34
198,Rāmkola,93,IN,1593139518,83,26.9,83.84,82,300.78,2.98
199,Bartlesville,1,US,1593139311,73,36.75,-95.98,80,299.82,1.5
200,Rocha,0,UY,1593139518,80,-34.48,-54.33,45,280.22,4.91
201,Noumea,0,NC,1593139508,47,-22.28,166.46,79,299.15,4.1
202,Żurrieq,0,MT,1593139519,88,35.83,14.47,72,295.15,3.1
203,Pangnirtung,84,CA,1593139519,65,66.15,-65.71,46,280.86,0.65
204,Pacific Grove,90,US,1593139519,82,36.62,-121.92,63,290.37,4.6
205,Nabire,41,ID,1593139519,81,-3.37,135.48,83,301.47,1.34
206,Nemuro,75,JP,1593139519,93,43.32,145.57,55,286.15,3.6
207,Marawi,93,PH,1593139519,78,8.0,124.29,84,302.04,2.68
208,Lakes Entrance,11,AU,1593139519,68,-37.88,147.98,57,287.04,0.89
209,Kiryat Gat,4,IL,1593139519,84,31.61,34.76,70,294.26,0.78
210,The Pas,1,CA,1593139519,68,53.83,-101.25,70,294.15,1.5
211,Neepawa,40,CA,1593139519,82,50.23,-99.47,68,293.15,1.5
212,Linxia Chengguanzhen,99,CN,1593139520,47,35.6,103.21,66,292.17,1.05
213,Orange,40,US,1593139520,64,33.7,-117.77,71,294.82,4.6
214,Ribeira Grande,99,PT,1593139520,90,38.52,-28.7,66,292.11,4.18
215,Tuktoyaktuk,75,CA,1593139520,57,69.45,-133.04,50,283.15,6.7
216,Hilo,1,US,1593139520,58,19.73,-155.09,84,302.15,4.6
217,Minden,0,DE,1593139321,68,52.28,8.92,64,291.15,3.1
218,Cabo San Lucas,5,MX,1593139307,29,22.89,-109.91,88,304.15,5.1
219,Aklavik,75,CA,1593139520,48,68.22,-135.01,66,292.15,3.1
220,Mt. Pleasant,1,US,1593139520,88,32.79,-79.86,80,299.82,1.5
221,Yazd,0,IR,1593139520,16,31.9,54.37,84,302.15,3.1
222,Effingham County,90,US,1593139521,69,32.37,-81.33,81,300.15,3.1
223,Sioux Lookout,40,CA,1593139521,60,50.1,-91.92,68,293.15,1.5
224,Bonavista,5,CA,1593139436,95,48.65,-53.11,60,288.8,6.42
225,Beringovskiy,100,RU,1593139521,64,63.05,179.32,49,282.55,7.06
226,Port Keats,47,AU,1593139521,31,-14.25,129.55,85,302.41,2.45
227,Anadyr,40,RU,1593139521,81,64.75,177.48,50,283.15,7.0
228,Acapulco de Juárez,90,MX,1593139522,94,16.86,-99.89,77,298.15,4.1
229,Kinsale,75,IE,1593139522,93,51.71,-8.53,60,288.71,3.1
230,Nichinan,75,JP,1593139522,59,31.6,131.37,90,305.15,6.2
231,Dwārka,22,IN,1593139522,76,22.24,68.97,86,303.02,5.46
232,Outjo,0,NA,1593139522,60,-20.12,16.15,44,279.68,1.79
233,Deputatsky,3,RU,1593139522,40,69.3,139.9,74,296.5,2.93
234,Hasaki,75,JP,1593139522,88,35.73,140.83,75,297.15,1.5
235,Katherine,40,AU,1593139522,20,-14.47,132.27,82,301.15,5.1
236,Norsup,75,VU,1593139522,88,-16.07,167.38,81,300.15,1.5
237,Tahoua,7,NE,1593139522,24,14.89,5.27,91,306.1,3.53
238,Ossora,39,RU,1593139523,58,59.24,163.07,63,290.42,7.3
239,Taltal,2,CL,1593139441,77,-25.4,-70.48,56,286.26,1.18
240,Sambava,52,MG,1593139523,83,-14.27,50.17,70,294.0,5.02
241,Coahuayana Viejo,75,MX,1593139441,88,18.73,-103.68,73,296.15,1.84
242,Maragogi,87,BR,1593139523,87,-9.01,-35.22,75,297.05,4.55
243,Arrondissement de Clermont,77,FR,1593139523,72,49.5,2.42,68,293.15,1.0
244,Nuuk,24,GL,1593139326,93,64.18,-51.72,37,276.15,3.6
245,Zigong,19,CN,1593139523,63,29.34,104.78,88,304.08,0.5
246,Harper,100,LR,1593139523,85,4.38,-7.72,76,297.39,4.37
247,Nacogdoches,75,US,1593139524,88,31.6,-94.63,78,298.71,4.1
248,Jaguaribe,59,BR,1593139524,75,-5.89,-38.62,74,296.58,1.82
249,Vila,75,PT,1593139524,93,42.03,-8.16,62,289.82,0.5
250,Waterloo,1,CA,1593139284,77,43.47,-80.52,64,290.93,1.5
251,Tasiilaq,98,GL,1593139524,93,65.61,-37.64,37,276.15,3.1
252,San Policarpo,100,PH,1593139524,79,12.18,125.51,84,301.93,2.41
253,Pithāpuram,40,IN,1593139524,79,17.12,82.27,84,302.15,2.6
254,Narsaq,74,GL,1593139524,81,60.92,-46.05,43,279.15,1.5
255,Port Hardy,90,CA,1593139525,71,50.7,-127.42,57,287.15,3.6
256,Salalah,75,OM,1593139525,83,17.02,54.09,84,302.15,1.5
257,Kalabo,0,ZM,1593139525,70,-14.97,22.68,49,282.86,1.62
258,Vysokogornyy,100,RU,1593139525,73,50.12,139.15,61,289.19,1.5
259,Góra,34,PL,1593139525,95,51.67,16.53,64,290.93,0.45
260,Jiwani,93,PK,1593139525,74,25.05,61.74,86,303.39,2.91
261,Alice Springs,0,AU,1593139525,31,-23.7,133.88,59,288.15,6.2
262,Hambantota,75,LK,1593139526,94,6.12,81.12,79,299.15,4.6
263,Yonibana,100,SL,1593139526,97,8.44,-12.24,73,295.92,0.98
264,Riachão do Dantas,0,BR,1593139526,91,-11.07,-37.73,65,291.63,0.9
265,Ballina,90,AU,1593139526,68,-28.87,153.57,64,291.15,5.7
266,Sisimiut,100,GL,1593139526,82,66.94,-53.67,40,277.85,2.73
267,Golovino,14,RU,1593139526,94,55.96,40.43,55,286.12,2.57
268,Hibbing,90,US,1593139526,77,47.43,-92.94,68,293.15,2.55
269,Leningradskiy,100,RU,1593139526,94,69.38,178.42,35,274.68,2.54
270,Miracatu,100,BR,1593139527,84,-24.28,-47.46,70,294.48,1.44
271,Zyryanka,7,RU,1593139527,24,65.75,150.85,86,303.21,4.43
272,Vikhorevka,78,RU,1593139527,68,56.12,101.16,68,293.15,2.0
273,Beidao,100,CN,1593139527,72,34.57,105.89,68,292.88,0.55
274,Karagay,92,RU,1593139527,86,58.27,54.94,48,281.77,3.97
275,Klyuchi,97,RU,1593139527,42,52.27,79.17,78,298.52,4.72
276,Chik,20,RU,1593139527,56,54.99,82.43,73,296.15,3.0
277,La Santisima Trinidad,64,BO,1593139255,95,-14.83,-64.9,70,294.47,4.73
278,Tautira,20,PF,1593139528,74,-17.73,-149.15,81,300.15,8.2
279,Riacho de Santana,29,BR,1593139528,73,-13.61,-42.94,69,293.65,3.93
280,Jacareacanga,8,BR,1593139325,76,-6.22,-57.75,75,297.17,0.43
281,Karatau,54,KZ,1593139528,13,43.17,70.47,86,303.27,7.33
282,Port Hedland,0,AU,1593139528,13,-20.32,118.57,81,300.15,6.7
283,Santa Cruz del Sur,18,CU,1593139528,87,20.71,-78.0,80,299.76,7.0
284,Serebryanyy Bor,95,RU,1593139528,51,56.8,124.8,69,293.61,4.11
285,Ancud,90,CL,1593139528,100,-41.87,-73.82,43,279.26,4.46
286,Łuków,0,PL,1593139528,10,51.93,22.38,64,290.93,3.91
287,Letterkenny,100,IE,1593139529,95,54.95,-7.73,57,287.27,0.64
288,Mahabad,0,IR,1593139529,53,36.76,45.72,66,292.03,2.64
289,Arkul',90,RU,1593139529,74,57.28,50.04,52,284.4,4.17
290,Phalombe,4,MW,1593139529,88,-15.81,35.65,55,285.88,0.71
291,São João da Barra,57,BR,1593139529,82,-21.64,-41.05,70,294.52,6.87
292,Faanui,74,PF,1593139529,75,-16.48,-151.75,79,299.01,4.67
293,Scarborough,0,GB,1593139527,92,54.28,-0.4,61,289.26,2.07
294,Portales,1,US,1593139529,30,34.19,-103.33,84,302.15,7.2
295,Bourail,0,NC,1593139529,50,-21.57,165.48,72,295.46,4.41
296,Dongsheng,98,CN,1593139530,22,39.82,109.98,76,297.5,1.81
297,Am Timan,100,TD,1593139530,71,11.03,20.28,77,297.91,4.82
298,Iqaluit,40,CA,1593139530,86,63.75,-68.51,39,277.15,1.0
299,Solnechnyy,77,RU,1593139530,56,50.72,136.63,68,293.05,2.0
300,Mongoumba,100,CF,1593139530,98,3.64,18.59,70,294.47,0.13
301,Port Macquarie,3,AU,1593139530,58,-31.43,152.92,65,291.48,3.29
302,Saldanha,86,ZA,1593139530,87,-33.01,17.94,55,286.15,1.5
303,Magdagachi,17,RU,1593139530,31,53.45,125.8,80,300.08,1.63
304,Pringsewu,50,ID,1593139530,65,-5.36,104.97,84,301.98,1.54
305,Trincomalee,98,LK,1593139531,71,8.57,81.23,83,301.54,7.26
306,Saint George,1,US,1593139531,10,37.1,-113.58,99,310.15,4.6
307,Savé,67,BJ,1593139531,97,8.04,2.49,74,296.25,3.12
308,Bubaque,92,GW,1593139531,86,11.28,-15.83,81,300.32,3.91
309,Omboué,69,GA,1593139531,87,-1.57,9.26,71,294.87,2.62
310,Salym,89,RU,1593139531,80,60.06,71.48,53,284.79,4.71
311,Berezovyy,83,RU,1593139531,52,51.67,135.7,69,293.8,1.35
312,Pangoa,19,PE,1593139531,95,-12.12,-73.0,68,293.38,0.86
313,Inhambane,23,MZ,1593139532,87,-23.86,35.38,65,291.28,3.04
314,Olafsvik,98,IS,1593139532,80,64.89,-23.71,48,282.11,1.72
315,Abbeville,100,FR,1593139532,78,50.1,1.83,69,293.71,0.69
316,Geraldton,22,AU,1593139532,72,-28.77,114.6,66,292.15,4.1
317,Baturaja,15,ID,1593139532,64,-4.13,104.17,85,302.48,1.32
318,Lalibela,70,ET,1593139532,54,12.03,39.03,57,286.8,0.36
319,Tual,14,ID,1593139532,82,-5.67,132.75,81,300.1,7.82
320,Erdenet,15,MN,1593139532,45,49.03,104.08,70,294.23,2.16
321,Walvis Bay,0,NA,1593139532,87,-22.96,14.51,54,285.37,1.0
322,Bethel,1,US,1593139533,56,41.37,-73.41,72,295.15,2.1
323,Dustlik,0,UZ,1593139533,14,40.52,68.04,85,302.68,2.04
324,Camaná,18,PE,1593139533,78,-16.62,-72.71,62,289.6,3.1
325,Korla,57,CN,1593139533,77,41.76,86.15,70,294.26,4.2
326,Sayyan,5,YE,1593139533,41,15.17,44.32,63,290.48,0.98
327,Port Blair,100,IN,1593139533,74,11.67,92.75,84,302.23,5.48
328,Merauke,43,ID,1593139533,72,-8.47,140.33,83,301.72,3.91
329,Alyangula,74,AU,1593139533,42,-13.85,136.42,84,302.15,4.1
330,Mayor Pablo Lagerenza,100,PY,1593139533,42,-19.93,-60.77,63,290.32,4.17
331,Tuatapere,91,NZ,1593139431,64,-46.13,167.68,53,284.59,1.36
332,Palana,34,RU,1593139534,80,59.12,159.97,50,283.35,6.07
333,Tabas,0,IR,1593139534,17,33.6,56.92,84,302.15,1.0
334,Port Augusta,0,AU,1593139534,87,-32.5,137.77,59,288.15,1.0
335,Chiredzi,0,ZW,1593139534,89,-21.05,31.67,55,285.93,0.57
336,Lahat,0,ID,1593139534,59,-3.8,103.53,86,302.99,1.03
337,Nongstoin,100,IN,1593139534,100,25.52,91.27,66,291.95,3.55
338,Verkhoyansk,12,RU,1593139534,24,67.54,133.38,87,303.82,4.55
339,Zhanakorgan,89,KZ,1593139535,15,43.91,67.25,82,300.82,2.85
340,Husavik,90,IS,1593139535,87,66.04,-17.34,50,283.15,2.1
341,Kez,78,RU,1593139535,81,57.9,53.72,49,282.51,3.99
342,Lüderitz,78,NA,1593139535,87,-26.65,15.16,57,287.15,2.6
343,Assiut,0,EG,1593139535,57,27.18,31.18,75,297.15,4.1
344,Port Lincoln,0,AU,1593139535,66,-34.73,135.87,58,287.77,2.82
345,Zhangaözen,0,KZ,1593139264,40,43.3,52.8,75,296.87,8.92
346,Cayenne,61,GF,1593139535,100,4.93,-52.33,77,298.15,3.34
347,Roseburg,1,US,1593139535,34,43.22,-123.34,82,301.15,5.7
348,Pontes e Lacerda,100,BR,1593139536,96,-15.23,-59.34,69,293.85,1.14
349,Río Gallegos,13,AR,1593139536,100,-51.62,-69.22,27,270.15,4.6
350,Victor Harbor,71,AU,1593139536,75,-35.57,138.62,59,288.15,1.75
351,College,75,US,1593139536,28,64.86,-147.8,68,293.15,3.1
352,Marrakesh,21,MA,1593139536,77,31.63,-8.01,68,293.15,2.6
353,Halkirk,24,CA,1593139536,58,52.28,-112.15,72,295.37,0.45
354,Vardø,75,NO,1593139536,93,70.37,31.11,50,283.15,2.1
355,San Fernando del Valle de Catamarca,100,AR,1593139457,71,-28.47,-65.79,54,285.37,3.13
356,Codrington,100,AU,1593139536,67,-38.27,141.97,52,284.44,1.54
357,Campina Verde,99,BR,1593139536,71,-19.54,-49.49,69,293.97,1.97
358,Unaí,0,BR,1593139537,58,-16.36,-46.91,66,292.06,0.3
359,San Patricio,95,MX,1593139537,82,19.22,-104.7,80,300.08,4.2
360,Shimoda,75,JP,1593139537,94,34.67,138.95,82,300.93,9.3
361,Kendari,77,ID,1593139537,64,-3.94,122.5,84,301.97,2.51
362,Mount Gambier,97,AU,1593139241,64,-37.83,140.77,54,285.39,1.47
363,Rāmhormoz,0,IR,1593139537,30,31.28,49.6,81,300.15,2.1
364,Çubuk,72,TR,1593139537,77,40.24,33.03,64,290.93,3.1
365,Mangochi,18,MW,1593139537,90,-14.48,35.26,61,289.22,2.29
366,Bonthe,100,SL,1593139538,89,7.53,-12.51,77,297.98,3.37
367,Northam,100,GB,1593139538,83,51.03,-4.22,63,290.37,2.68
368,Santiago,75,CL,1593139538,75,-33.46,-70.65,46,281.15,4.6
369,Pekan,20,MY,1593139538,78,3.48,103.4,82,301.15,3.6
370,Kodinsk,45,RU,1593139538,44,58.69,99.18,81,300.15,1.45
371,Thunder Bay,20,CA,1593139512,46,48.4,-89.32,72,295.15,4.6
372,Jaciara,100,BR,1593139440,65,-15.97,-54.97,72,295.48,0.97
373,Senno,0,RU,1593139538,76,59.53,33.92,64,290.78,2.19
374,Arrondissement de Dieppe,100,FR,1593139497,77,49.75,1.17,69,293.71,2.1
375,Lompoc,13,US,1593139538,77,34.64,-120.46,63,290.15,4.6
376,Mtwango,95,TZ,1593139539,95,-9.02,34.8,53,284.78,3.71
377,Kruisfontein,26,ZA,1593139539,94,-34.0,24.73,54,285.42,1.46
378,Port-Gentil,96,GA,1593139539,81,-0.72,8.78,74,296.43,5.45
379,Kwang Binh,100,VN,1593139539,54,17.48,106.6,93,306.84,3.66
380,Fengrun,85,CN,1593139539,33,39.83,118.12,79,299.26,2.68
381,Santa Isabel Rio Negro,95,BR,1593139539,94,-0.41,-65.02,74,296.45,0.98
382,Ubari,0,LY,1593139539,26,26.59,12.78,78,298.75,4.84
383,Gunnedah,0,AU,1593139540,58,-30.98,150.25,55,286.15,2.6
384,Barcelos,75,PT,1593139540,93,41.54,-8.62,60,288.71,2.1
385,Zabaykal'sk,26,RU,1593139540,36,49.63,117.32,74,296.35,1.1
386,Vostok,100,RU,1593139540,96,46.49,135.88,57,286.79,0.98
387,Zheleznodorozhnyy,16,RU,1593139540,88,55.75,38.0,65,291.48,1.0
388,Soubre,100,CI,1593139540,98,5.79,-6.61,72,295.2,0.76
389,Porto-Novo,40,BJ,1593139540,83,6.5,2.6,81,300.15,5.1
390,Biled,0,RO,1593139540,100,45.89,20.96,68,293.15,3.6
391,Caconda,0,AO,1593139541,54,-13.73,15.07,46,280.76,1.12
392,Baghlan,46,AF,1593139541,11,36.13,68.71,92,306.74,1.37
393,Qandala,97,SO,1593139541,52,11.47,49.87,91,305.72,3.26
394,Polewali,59,ID,1593139541,66,-3.43,119.34,85,302.73,3.21
395,Bang Saphan,75,TH,1593139541,88,11.21,99.51,81,300.15,2.1
396,São José de Piranhas,96,BR,1593139541,85,-7.12,-38.5,69,293.57,2.45
397,Robertson,75,US,1593139541,64,36.52,-86.87,73,296.15,2.11
398,Kalengwa,0,ZM,1593139541,94,-13.47,25.0,50,282.89,1.67
399,Jalu,0,LY,1593139542,59,29.03,21.55,72,295.13,4.38
400,Buloh Kasap,40,MY,1593139542,94,2.55,102.76,75,297.15,1.0
401,Sitka,90,US,1593139344,66,57.05,-135.33,54,285.15,5.7
402,Terra Santa,50,BR,1593139542,96,-2.1,-56.49,74,296.53,1.3
403,Beipiao,1,CN,1593139542,43,41.79,120.78,77,297.9,3.3
404,Haines Junction,49,CA,1593139542,40,60.75,-137.51,57,286.83,3.53
405,Piteå,17,SE,1593139542,68,65.32,21.48,64,291.15,3.1
406,Yara,2,CU,1593139542,90,20.28,-76.95,76,297.76,2.08
407,Ciudad Río Bravo,1,MX,1593139542,78,25.98,-98.1,79,299.15,3.6
408,Barranquilla,98,CO,1593139529,78,10.96,-74.8,82,301.15,5.1
409,Bakel,90,SN,1593139543,52,14.9,-12.46,86,302.89,8.21
410,Koson,0,UZ,1593139543,31,39.04,65.58,77,298.15,1.0
411,Terbuny,31,RU,1593139543,93,52.14,38.28,61,289.22,3.75
412,Ust-Nera,93,RU,1593139543,24,64.57,143.2,79,299.19,2.25
413,Rexburg,1,US,1593139544,53,43.83,-111.79,72,295.15,2.1
414,Bol'shoye Selo,18,RU,1593139544,92,57.72,38.93,58,287.42,1.49
415,Mahon,0,ES,1593139407,94,39.89,4.27,72,295.15,2.1
416,Lima,90,PE,1593138854,82,-12.04,-77.03,63,290.15,2.1
417,Derzhavīnsk,100,KZ,1593139544,81,51.1,66.32,53,284.68,6.82
418,Broome,90,US,1593139544,77,42.25,-75.83,63,290.15,2.6
419,Riyadh,0,SA,1593139527,14,24.69,46.72,81,300.15,3.1
420,Chāndbāli,88,IN,1593139544,67,20.78,86.77,89,304.74,6.27
421,Savonlinna,11,FI,1593139544,82,61.87,28.88,64,291.15,1.5
422,Kembé,100,CF,1593139545,98,4.62,21.89,69,293.51,0.92
423,Taitung City,75,TW,1593139545,66,22.76,121.14,90,305.15,2.6
424,Bilibino,98,RU,1593139545,76,68.05,166.44,48,282.19,3.69
425,Kapuskasing,90,CA,1593139545,87,49.42,-82.43,59,288.15,2.6
426,Rochester,75,US,1593139260,68,43.15,-77.62,70,294.26,3.1
427,Teahupoo,20,PF,1593139545,74,-17.83,-149.27,81,300.15,8.2
428,Hay River,75,CA,1593139326,55,60.82,-115.8,64,291.15,2.1
429,Samandağ,20,TR,1593139545,83,36.08,35.98,73,296.15,7.2
430,Tura,100,IN,1593139546,99,25.52,90.22,74,296.62,3.06
431,Kabanjahe,40,ID,1593139546,88,3.1,98.49,81,300.15,3.1
432,Ahipara,100,NZ,1593139546,85,-35.17,173.17,62,289.66,4.4
433,Araçuaí,0,BR,1593139546,87,-16.85,-42.07,64,291.04,0.72
434,São Félix do Xingu,7,BR,1593139546,85,-6.64,-51.99,72,295.56,1.24
435,Freital,79,DE,1593139546,93,51.0,13.65,62,289.82,2.1
436,Mucuri,0,BR,1593139546,79,-18.09,-39.55,70,294.38,2.18
437,Santa Cruz de la Sierra,90,BO,1593139546,87,-17.8,-63.17,59,288.15,7.7
438,Richards Bay,0,ZA,1593139546,73,-28.78,32.04,65,291.55,6.97
439,Nioro,70,GM,1593139547,75,13.35,-15.75,80,300.02,2.92
440,Chapada dos Guimarães,100,BR,1593139547,65,-15.46,-55.75,77,298.15,1.49
441,Venice,90,US,1593139305,65,27.1,-82.45,85,302.59,2.6
442,Gamba,29,GA,1593139547,92,-2.65,10.0,70,294.39,1.24
443,Hillsborough,20,US,1593139547,68,37.57,-122.38,71,294.82,7.7
444,Margate,59,GB,1593139547,74,51.38,1.39,66,292.04,0.45
445,Todos Santos,0,MX,1593139547,94,23.45,-110.22,67,292.59,1.34
446,Arman',0,RU,1593139547,66,59.7,150.17,56,286.74,4.2
447,Tahe,0,CN,1593139548,29,52.33,124.73,77,298.41,2.72
448,San Quintín,4,MX,1593139548,82,30.48,-115.95,64,290.74,4.66
449,Neuquén,75,AR,1593139548,57,-38.95,-68.06,41,278.15,1.9
450,Muros,83,ES,1593139548,89,42.78,-9.06,59,288.15,1.56
451,Fukuechō,75,JP,1593139548,78,32.69,128.84,79,299.15,4.1
452,Mayo,1,US,1593139509,82,38.89,-76.51,70,294.15,3.09
453,Simao,98,CN,1593139548,82,22.79,100.97,73,296.05,1.97
454,Curup,2,ID,1593139548,52,-3.47,102.53,84,301.92,0.04
455,Kahului,20,US,1593139548,45,20.89,-156.47,86,303.15,5.1
456,St. George's,75,GD,1593139548,88,12.06,-61.75,82,301.15,7.7
457,Baykit,13,RU,1593139549,39,61.67,96.37,78,298.56,2.1
458,Jumla,79,NP,1593139549,54,29.27,82.18,69,293.91,1.32
459,Iquique,90,CL,1593139278,67,-20.22,-70.14,63,290.15,2.6
460,Tateyama,75,JP,1593139549,88,34.98,139.87,82,300.93,10.8
461,Taoudenni,0,ML,1593139549,10,22.68,-3.98,93,306.88,3.32
462,Westport,1,US,1593139253,64,41.14,-73.36,73,296.15,1.5
463,Edendale,0,ZA,1593139549,76,-29.65,30.31,49,282.59,2.48
464,Kashgar,0,CN,1593139549,28,39.45,75.98,73,296.15,4.0
465,Ploemeur,90,FR,1593139549,93,47.73,-3.43,61,289.26,4.6
466,Qasigiannguit,100,GL,1593139549,86,68.82,-51.19,39,277.15,2.1
467,Rijeka,75,HR,1593139550,82,45.34,14.41,68,293.15,3.6
468,Port Hawkesbury,40,CA,1593139550,100,45.62,-61.35,63,290.37,1.5
469,Ciudad del Carmen,66,MX,1593139545,68,18.63,-91.83,85,302.72,5.84
470,Yerbogachën,50,RU,1593139550,39,61.28,108.01,78,298.53,1.79
471,Namtsy,19,RU,1593139550,21,62.72,129.67,84,302.15,2.0
472,Klaksvík,100,FO,1593139550,76,62.23,-6.59,54,285.15,5.7
473,Srednekolymsk,92,RU,1593139550,42,67.45,153.68,76,297.7,8.72
474,Saint-Joseph,17,RE,1593139551,73,-21.37,55.62,72,295.15,10.8
475,Mayskiy,0,RU,1593139551,58,47.69,40.1,57,287.15,1.0
476,Mangan,99,IN,1593139388,56,27.52,88.53,78,298.61,0.66
477,Igunga,99,TZ,1593139551,75,-4.28,33.88,61,289.2,2.7
478,Nampula,12,MZ,1593139551,99,-15.12,39.27,58,287.51,1.82
479,Gravdal,88,NO,1593139551,81,68.12,13.5,52,284.16,6.72
480,Leshukonskoye,89,RU,1593139552,71,64.9,45.76,51,283.93,1.96
481,Forio,0,IT,1593139552,77,40.73,13.86,70,294.15,1.5
482,Mongo,84,TD,1593139552,56,12.18,18.69,82,300.88,2.07
483,Motygino,5,RU,1593139552,40,58.18,94.76,78,298.81,1.49
484,Otradnoye,6,RU,1593139552,72,59.78,30.82,64,291.15,1.0
485,Nouadhibou,0,MR,1593139552,77,20.93,-17.03,70,294.15,8.7
486,Havøysund,100,NO,1593139553,76,71.0,24.66,50,283.15,11.3
487,Posse,0,BR,1593139553,50,-14.09,-46.37,64,290.92,2.22
488,Sajanan,40,TN,1593139553,94,37.06,9.24,72,295.15,1.0
489,Surgāna,100,IN,1593139553,84,20.57,73.62,78,298.84,2.01
490,Bundaberg,0,AU,1593139553,43,-24.85,152.35,70,294.15,2.1
491,Ekangala,0,ZA,1593139553,86,-25.7,28.75,40,277.59,1.07
492,Svetlaya,100,RU,1593139554,87,46.54,138.33,57,287.06,3.5
493,Hamilton,1,US,1593139554,68,39.18,-84.53,74,296.48,1.69
494,Bereda,89,ES,1593139554,95,43.27,-7.54,59,288.15,2.24
495,Acarí,24,PE,1593139554,65,-15.43,-74.62,63,290.41,0.7
496,Gilgit,29,PK,1593139554,28,35.92,74.31,79,299.42,1.87
497,Pierre,1,US,1593139554,78,44.37,-100.35,73,296.15,1.54
498,Denpasar,40,ID,1593139293,79,-8.65,115.22,84,302.15,5.1
499,Mehamn,20,NO,1593139555,77,71.04,27.85,50,283.14,13.6
500,Jining,100,CN,1593139555,48,35.41,116.58,91,306.17,4.49
501,Almenara,15,BR,1593139555,88,-16.18,-40.69,65,291.36,0.53
502,Magalia,1,US,1593139555,31,39.81,-121.58,104,313.15,2.6
503,Atambua,9,ID,1593139555,50,-9.11,124.89,83,301.39,1.32
504,Kumano,75,JP,1593139556,94,34.34,132.59,85,302.59,4.6
505,Tilichiki,68,RU,1593139556,65,60.47,166.1,59,288.17,5.54
506,Asău,26,RO,1593139556,95,46.43,26.4,56,286.48,1.44
507,Gambēla,45,ET,1593139556,88,8.25,34.58,69,293.8,1.76
508,Beian,40,NO,1593139556,82,63.66,9.57,59,288.15,1.5
509,High Rock,71,BS,1593139556,79,26.62,-78.28,83,301.62,4.24
510,Leirvik,0,NO,1593139556,78,59.78,5.5,60,288.71,2.41
511,Kidal,0,ML,1593139557,13,18.44,1.41,87,303.76,2.41
512,Tucupita,100,VE,1593139557,98,9.06,-62.05,75,296.82,1.51
513,Tadine,0,NC,1593139557,59,-21.55,167.88,72,295.35,5.04
514,Severodvinsk,40,RU,1593139557,62,64.56,39.83,57,287.15,2.0
515,Kuandian,100,CN,1593139558,88,40.73,124.78,67,292.34,2.07
516,Matara,95,LK,1593139558,86,5.95,80.54,79,299.11,5.25
517,Padang,60,ID,1593139558,53,-0.95,100.35,86,303.04,0.99
518,Māngrol,21,IN,1593139558,73,21.12,70.12,86,303.13,4.68
519,Minnedosa,40,CA,1593139558,82,50.25,-99.84,68,293.15,1.5
520,Nizhnyaya Tavda,17,RU,1593139559,83,57.67,66.17,50,283.34,3.77
521,Ibadan,100,NG,1593139559,97,7.39,3.9,73,295.89,1.65
522,Garoowe,70,SO,1593139559,62,8.41,48.48,79,299.16,10.15
523,Chicama,16,PE,1593139559,81,-7.84,-79.15,64,290.78,2.22
524,Kenora,75,CA,1593139560,68,49.82,-94.43,72,295.15,4.1
525,Maniitsoq,2,GL,1593139560,88,65.42,-52.9,41,278.0,2.63
526,Bagdarin,7,RU,1593139560,36,54.43,113.6,72,295.37,3.34
527,Ol'ga,100,RU,1593139560,95,43.74,135.29,56,286.53,4.14
528,Anloga,87,GH,1593139560,86,5.79,0.9,78,298.69,5.78
529,Ayan,100,RU,1593139561,90,56.45,138.17,47,281.31,2.63
530,Paracuru,100,BR,1593139504,79,-3.41,-39.03,77,298.15,0.45
531,Petropavlovsk-Kamchatskiy,20,RU,1593139420,42,53.05,158.65,82,301.15,6.0
532,Fairfield,1,US,1593139440,56,41.27,-73.32,72,295.37,2.1
533,Sakaiminato,75,JP,1593139561,74,35.55,133.23,81,300.15,10.3
534,Raduzhny,100,RU,1593139561,77,62.1,77.47,56,286.59,4.9
535,Wasilla,90,US,1593139435,58,61.58,-149.44,64,291.15,3.6
536,Kiri Buru,100,IN,1593139562,64,22.08,85.35,87,303.45,2.77
537,Necochea,34,AR,1593139562,86,-38.55,-58.74,39,277.04,1.34
538,Hurricane,1,US,1593139562,11,37.18,-113.29,99,310.15,5.1
539,Tabuk,100,PH,1593139562,60,17.42,121.44,88,304.09,2.06
540,‘Ewa Beach,40,US,1593139562,55,21.32,-158.01,88,304.15,3.6
541,Ust'-Ilimsk,90,RU,1593139562,34,58.0,102.66,83,301.55,1.59
542,Kirakira,1,SB,1593139563,67,-10.45,161.92,86,303.04,4.56
543,Birjand,0,IR,1593139563,20,32.87,59.22,64,291.15,2.1
544,Henties Bay,1,NA,1593139563,91,-22.12,14.28,54,285.37,4.56
545,Chyhyryn,0,UA,1593139563,82,49.08,32.66,61,289.28,2.6
546,Ojinaga,1,MX,1593139563,18,29.57,-104.42,93,307.15,4.1
547,Otane,100,NZ,1593139563,88,-39.88,176.63,52,284.52,4.03
548,Byron Bay,90,AU,1593138988,67,-28.65,153.62,63,290.15,4.6
549,Cabra,0,ES,1593139564,79,37.47,-4.44,67,292.59,0.73
550,Atar,0,MR,1593139564,15,20.52,-13.05,93,306.9,5.66
551,Ust-Kuyga,0,RU,1593139564,42,70.02,135.6,77,298.05,3.36
552,Brufut,40,GM,1593139564,94,13.38,-16.75,79,299.15,1.5
553,Kapoeta,0,SS,1593139565,64,4.77,33.59,74,296.66,2.23
554,Rakiv Lis,58,UA,1593139565,91,51.62,24.92,62,289.58,2.53
555,Rancho Palos Verdes,58,US,1593139543,87,33.74,-118.39,66,292.04,1.34
556,Phan Thiet,98,VN,1593139565,67,10.93,108.1,86,303.09,2.93
557,Benjamín Aceval,20,PY,1593139566,93,-24.97,-57.57,50,283.15,2.15
558,Bosaso,33,SO,1593139566,43,11.28,49.18,92,306.3,7.16
559,Nouakchott,0,MR,1593139566,83,18.09,-15.98,77,298.15,3.1
560,Prabumulih,2,ID,1593139566,66,-3.45,104.25,84,302.07,1.63
561,Guerrero Negro,0,MX,1593139476,83,27.98,-114.06,64,291.02,7.26
